[{"name":"Uyo","country":"Nigeria","lat":5.036,"lon":7.9162,"pop":554906},{"name":"Shah Alam","country":"Malaysia","lat":3.0667,"lon":101.55,"pop":481654},{"name":"Duhok","country":"Iraq","lat":36.8667,"lon":43,"pop":986000},{"name":"Taoyuan","country":"Taiwan","lat":24.9889,"lon":121.3111,"pop":500000},{"name":"Glendale","country":"United States of America","lat":33.5354,"lon":-112.1745,"pop":500000},{"name":"Mesa","country":"United States of America","lat":33.4148,"lon":-111.821,"pop":1085394},{"name":"Berkeley","country":"United States of America","lat":37.8739,"lon":-122.2712,"pop":496356},{"name":"San Mateo","country":"United States of America","lat":37.5406,"lon":-122.3032,"pop":626406},{"name":"Aurora","country":"United States of America","lat":39.6959,"lon":-104.8085,"pop":587540},{"name":"Kansas City","country":"United States of America","lat":39.1136,"lon":-94.6301,"pop":501577},{"name":"Metairie","country":"United States of America","lat":29.9839,"lon":-90.1528,"pop":394206},{"name":"McAllen","country":"United States of America","lat":26.203,"lon":-98.2297,"pop":364004},{"name":"Pasadena","country":"United States of America","lat":29.6609,"lon":-95.1477,"pop":628492},{"name":"Arlington","country":"United States of America","lat":32.6848,"lon":-97.0202,"pop":724777},{"name":"Cabimas","country":"Venezuela","lat":10.43,"lon":-71.45,"pop":441094},{"name":"Stamford","country":"United States of America","lat":41.0533,"lon":-73.5392,"pop":746920},{"name":"Springfield","country":"United States of America","lat":42.12,"lon":-72.58,"pop":421780},{"name":"Salem","country":"United States of America","lat":42.5225,"lon":-70.8831,"pop":335509},{"name":"Sanford","country":"United States of America","lat":28.79,"lon":-81.28,"pop":333460},{"name":"Miami Beach","country":"United States of America","lat":25.8099,"lon":-80.1318,"pop":407750},{"name":"Joliet","country":"United States of America","lat":41.53,"lon":-88.1067,"pop":578460},{"name":"Evanston","country":"United States of America","lat":42.0483,"lon":-87.7,"pop":350000},{"name":"Elgin","country":"United States of America","lat":42.0395,"lon":-88.2899,"pop":389514},{"name":"Durham","country":"United States of America","lat":36,"lon":-78.92,"pop":309495},{"name":"Hampton","country":"United States of America","lat":37.03,"lon":-76.35,"pop":366766},{"name":"Allentown","country":"United States of America","lat":40.6,"lon":-75.5,"pop":496442},{"name":"Puerto la Cruz","country":"Venezuela","lat":10.17,"lon":-64.68,"pop":546616},{"name":"Los Teques","country":"Venezuela","lat":10.42,"lon":-67.02,"pop":303470},{"name":"Latakia","country":"Syria","lat":35.54,"lon":35.78,"pop":539147},{"name":"Douma","country":"Syria","lat":33.5833,"lon":36.4,"pop":496145},{"name":"Mykolayiv","country":"Ukraine","lat":46.9677,"lon":31.9843,"pop":510840},{"name":"Chernihiv","country":"Ukraine","lat":51.5049,"lon":31.3015,"pop":307684},{"name":"Khmelnytskyy","country":"Ukraine","lat":49.4249,"lon":27.0015,"pop":398346},{"name":"Kryvyy Rih","country":"Ukraine","lat":47.9283,"lon":33.345,"pop":652380},{"name":"Makiyivka","country":"Ukraine","lat":48.0297,"lon":37.9746,"pop":376610},{"name":"Horlivka","country":"Ukraine","lat":48.2996,"lon":38.0547,"pop":396885},{"name":"Sharjah","country":"United Arab Emirates","lat":25.3714,"lon":55.4065,"pop":1103027},{"name":"Qurghonteppa","country":"Tajikistan","lat":37.8373,"lon":68.7713,"pop":311574},{"name":"Gijón","country":"Spain","lat":43.53,"lon":-5.67,"pop":335972},{"name":"Sunderland","country":"United Kingdom","lat":54.9034,"lon":-1.3799,"pop":452934},{"name":"Southampton","country":"United Kingdom","lat":50.9,"lon":-1.4,"pop":384417},{"name":"Bristol","country":"United Kingdom","lat":51.45,"lon":-2.5833,"pop":553528},{"name":"Bournemouth","country":"United Kingdom","lat":50.73,"lon":-1.9001,"pop":426945},{"name":"Kahramanmaraş","country":"Turkey","lat":37.61,"lon":36.945,"pop":376045},{"name":"Icel","country":"Turkey","lat":36.8,"lon":34.62,"pop":616990},{"name":"Cheongju","country":"South Korea","lat":36.6439,"lon":127.5012,"pop":775096},{"name":"Ansan","country":"South Korea","lat":37.3481,"lon":126.8595,"pop":739493},{"name":"Changwon","country":"South Korea","lat":35.2191,"lon":128.5836,"pop":1081499},{"name":"Southend-on-Sea","country":"United Kingdom","lat":51.55,"lon":0.72,"pop":618386},{"name":"Reading","country":"United Kingdom","lat":51.47,"lon":-0.98,"pop":369804},{"name":"Leicester","country":"United Kingdom","lat":52.63,"lon":-1.1332,"pop":457983},{"name":"Bradford","country":"United Kingdom","lat":53.7917,"lon":-1.7545,"pop":501700},{"name":"Sheffield","country":"United Kingdom","lat":53.3667,"lon":-1.5,"pop":1292900},{"name":"Galați","country":"Romania","lat":45.4559,"lon":28.0459,"pop":311156},{"name":"San Lorenzo","country":"Paraguay","lat":-25.34,"lon":-57.52,"pop":500000},{"name":"Encarnación","country":"Paraguay","lat":-27.3472,"lon":-55.8739,"pop":357119},{"name":"Braga","country":"Portugal","lat":41.555,"lon":-8.4213,"pop":826833},{"name":"At Taif","country":"Saudi Arabia","lat":21.2622,"lon":40.3823,"pop":657282},{"name":"Eindhoven","country":"Netherlands","lat":51.43,"lon":5.5,"pop":398053},{"name":"Najran","country":"Saudi Arabia","lat":17.5065,"lon":44.1316,"pop":369609},{"name":"Al Hillah","country":"Saudi Arabia","lat":23.4895,"lon":46.7564,"pop":594605},{"name":"Al-Qatif","country":"Saudi Arabia","lat":26.5196,"lon":50.0115,"pop":368892},{"name":"Sialkote","country":"Pakistan","lat":32.52,"lon":74.56,"pop":477396},{"name":"Sheikhu Pura","country":"Pakistan","lat":31.72,"lon":73.99,"pop":361303},{"name":"Gujrat","country":"Pakistan","lat":32.58,"lon":74.08,"pop":301506},{"name":"Rahim Yar Khan","country":"Pakistan","lat":28.4202,"lon":70.2952,"pop":353203},{"name":"Kohat","country":"Pakistan","lat":33.6027,"lon":71.4327,"pop":343027},{"name":"Abbottabad","country":"Pakistan","lat":34.1495,"lon":73.1995,"pop":1183647},{"name":"Mardan","country":"Pakistan","lat":34.2,"lon":72.04,"pop":300424},{"name":"Lalitpur","country":"Nepal","lat":27.6666,"lon":85.3333,"pop":337785},{"name":"Naberezhnyye Chelny","country":"Russia","lat":55.7319,"lon":52.3924,"pop":461086},{"name":"Gómez Palacio","country":"Mexico","lat":25.5701,"lon":-103.5,"pop":399328},{"name":"Reynosa","country":"Mexico","lat":26.08,"lon":-98.3,"pop":498654},{"name":"Tlaxcala","country":"Mexico","lat":19.32,"lon":-98.23,"pop":503878},{"name":"Irapuato","country":"Mexico","lat":20.676,"lon":-101.3509,"pop":339554},{"name":"Celaya","country":"Mexico","lat":20.53,"lon":-100.8,"pop":383697},{"name":"Nezahualcoyotl","country":"Mexico","lat":19.41,"lon":-99.03,"pop":1109363},{"name":"Orizaba","country":"Mexico","lat":18.85,"lon":-97.13,"pop":355333},{"name":"Xalapa","country":"Mexico","lat":19.53,"lon":-96.92,"pop":452186},{"name":"Bytom","country":"Poland","lat":50.35,"lon":18.91,"pop":662247},{"name":"Kaesong","country":"North Korea","lat":37.964,"lon":126.5644,"pop":338155},{"name":"Sunchon","country":"North Korea","lat":39.4236,"lon":125.939,"pop":400629},{"name":"Irbid","country":"Jordan","lat":32.55,"lon":35.85,"pop":650000},{"name":"Az Zarqa","country":"Jordan","lat":32.07,"lon":36.1,"pop":894691},{"name":"Yumen","country":"China","lat":39.83,"lon":97.73,"pop":350000},{"name":"Linxia","country":"China","lat":35.6,"lon":103.2,"pop":534555},{"name":"Zhuozhou","country":"China","lat":39.5401,"lon":115.79,"pop":628000},{"name":"Chaozhou","country":"China","lat":23.68,"lon":116.63,"pop":424787},{"name":"Alajuela","country":"Costa Rica","lat":10.02,"lon":-84.23,"pop":387743},{"name":"Spanish Town","country":"Jamaica","lat":17.9833,"lon":-76.95,"pop":432704},{"name":"Soledad","country":"Colombia","lat":10.92,"lon":-74.77,"pop":698852},{"name":"Valledupar","country":"Colombia","lat":10.48,"lon":-73.25,"pop":308237},{"name":"Bielefeld","country":"Germany","lat":52.03,"lon":8.53,"pop":331906},{"name":"Dortmund","country":"Germany","lat":51.53,"lon":7.45,"pop":588462},{"name":"Duisburg","country":"Germany","lat":51.43,"lon":6.75,"pop":1276757},{"name":"Wuppertal","country":"Germany","lat":51.25,"lon":7.17,"pop":776525},{"name":"Essen","country":"Germany","lat":51.45,"lon":7.0166,"pop":1742135},{"name":"Karlsruhe","country":"Germany","lat":49,"lon":8.4,"pop":377487},{"name":"Heidelberg","country":"Germany","lat":49.42,"lon":8.7,"pop":426590},{"name":"Augsburg","country":"Germany","lat":48.35,"lon":10.9,"pop":358989},{"name":"Chemnitz","country":"Germany","lat":50.83,"lon":12.92,"pop":302643},{"name":"Yangquan","country":"China","lat":37.87,"lon":113.57,"pop":981448},{"name":"Shiyan","country":"China","lat":32.57,"lon":110.78,"pop":770000},{"name":"Jingzhou","country":"China","lat":30.32,"lon":112.23,"pop":520000},{"name":"Mengzi","country":"China","lat":23.3619,"lon":103.4061,"pop":303341},{"name":"Hengshui","country":"China","lat":37.72,"lon":115.7,"pop":456356},{"name":"Xuanhua","country":"China","lat":40.5944,"lon":115.0243,"pop":409745},{"name":"Luohe","country":"China","lat":33.57,"lon":114.03,"pop":417356},{"name":"Wafangdian","country":"China","lat":39.6259,"lon":121.996,"pop":355844},{"name":"Zhucheng","country":"China","lat":35.99,"lon":119.3801,"pop":1060000},{"name":"Hangu","country":"China","lat":39.232,"lon":117.777,"pop":332793},{"name":"Xinyi","country":"China","lat":34.38,"lon":118.35,"pop":962656},{"name":"Yangzhou","country":"China","lat":32.4,"lon":119.43,"pop":539715},{"name":"Okayama","country":"Japan","lat":34.672,"lon":133.9171,"pop":866092},{"name":"Baishan","country":"China","lat":41.9,"lon":126.43,"pop":330000},{"name":"Yanji","country":"China","lat":42.8823,"lon":129.5128,"pop":488740},{"name":"Takamatsu","country":"Japan","lat":34.3447,"lon":134.0448,"pop":334223},{"name":"Tokushima","country":"Japan","lat":34.0674,"lon":134.5525,"pop":443760},{"name":"Toyama","country":"Japan","lat":36.7,"lon":137.23,"pop":332812},{"name":"Ōtsu","country":"Japan","lat":35.0064,"lon":135.8674,"pop":536976},{"name":"Maebashi","country":"Japan","lat":36.3927,"lon":139.0727,"pop":344871},{"name":"Kawasaki","country":"Japan","lat":35.53,"lon":139.705,"pop":1437266},{"name":"Kawagoe","country":"Japan","lat":35.9177,"lon":139.4911,"pop":337931},{"name":"Utsunomiya","country":"Japan","lat":36.55,"lon":139.87,"pop":667752},{"name":"Hachiōji","country":"Japan","lat":35.6577,"lon":139.3261,"pop":579399},{"name":"Kōriyama","country":"Japan","lat":37.41,"lon":140.38,"pop":340560},{"name":"Rohtak","country":"India","lat":28.9,"lon":76.58,"pop":317245},{"name":"Hisar","country":"India","lat":29.17,"lon":75.725,"pop":544829},{"name":"Kalyan","country":"India","lat":19.2502,"lon":73.1602,"pop":1576614},{"name":"Viña del Mar","country":"Chile","lat":-33.0249,"lon":-71.5571,"pop":503534},{"name":"Piraeus","country":"Greece","lat":37.95,"lon":23.7,"pop":466065},{"name":"Ad Diwaniyah","country":"Iraq","lat":31.9889,"lon":44.924,"pop":358408},{"name":"Zanjan","country":"Iran","lat":36.67,"lon":48.5,"pop":357471},{"name":"Urmia","country":"Iran","lat":37.53,"lon":45,"pop":577307},{"name":"Sanandaj","country":"Iran","lat":35.3,"lon":47.02,"pop":349176},{"name":"Ajmer","country":"India","lat":26.45,"lon":74.64,"pop":589985},{"name":"Firozabad","country":"India","lat":27.15,"lon":78.3949,"pop":306409},{"name":"Mathura","country":"India","lat":27.5,"lon":77.67,"pop":330511},{"name":"Muzaffarnagar","country":"India","lat":29.485,"lon":77.695,"pop":349706},{"name":"Canoas","country":"Brazil","lat":-29.92,"lon":-51.18,"pop":600000},{"name":"São José dos Pinhais","country":"Brazil","lat":-25.57,"lon":-49.18,"pop":665063},{"name":"Nova Iguaçu","country":"Brazil","lat":-22.7551,"lon":-43.4452,"pop":844583},{"name":"Duque de Caxias","country":"Brazil","lat":-22.7964,"lon":-43.3056,"pop":842890},{"name":"Niterói","country":"Brazil","lat":-22.8825,"lon":-43.1058,"pop":1500513},{"name":"Oshawa","country":"Canada","lat":43.88,"lon":-78.85,"pop":450963},{"name":"London","country":"Canada","lat":42.97,"lon":-81.25,"pop":346765},{"name":"Kitchener","country":"Canada","lat":43.45,"lon":-80.5,"pop":417001},{"name":"Corrientes","country":"Argentina","lat":-27.49,"lon":-58.81,"pop":340823},{"name":"Santo André","country":"Brazil","lat":-23.6528,"lon":-46.5278,"pop":662373},{"name":"Jundiaí","country":"Brazil","lat":-23.2,"lon":-46.88,"pop":505548},{"name":"São José dos Campos","country":"Brazil","lat":-23.2,"lon":-45.8799,"pop":753769},{"name":"Americana","country":"Brazil","lat":-22.7499,"lon":-47.33,"pop":479472},{"name":"Piracicaba","country":"Brazil","lat":-22.7297,"lon":-47.6411,"pop":342209},{"name":"Itu","country":"Brazil","lat":-23.26,"lon":-47.3,"pop":320170},{"name":"Jaboatao","country":"Brazil","lat":-8.11,"lon":-35.02,"pop":702621},{"name":"Olinda","country":"Brazil","lat":-8,"lon":-34.85,"pop":921840},{"name":"Gent","country":"Belgium","lat":51.03,"lon":3.7,"pop":444336},{"name":"Ganca","country":"Azerbaijan","lat":40.685,"lon":46.35,"pop":303268},{"name":"Plovdiv","country":"Bulgaria","lat":42.154,"lon":24.754,"pop":340494},{"name":"Liège","country":"Belgium","lat":50.63,"lon":5.58,"pop":749110},{"name":"Zhongli","country":"Taiwan","lat":24.965,"lon":121.2168,"pop":1632616},{"name":"Keelung","country":"Taiwan","lat":25.1333,"lon":121.7333,"pop":500000},{"name":"Everett","country":"United States of America","lat":47.9604,"lon":-122.2,"pop":486903},{"name":"Stockton","country":"United States of America","lat":37.9581,"lon":-121.2897,"pop":685306},{"name":"Oceanside","country":"United States of America","lat":33.1915,"lon":-117.3458,"pop":609854},{"name":"Modesto","country":"United States of America","lat":37.6554,"lon":-120.99,"pop":323386},{"name":"Irvine","country":"United States of America","lat":33.6804,"lon":-117.8299,"pop":3010232},{"name":"Palm Springs","country":"United States of America","lat":33.7774,"lon":-116.5331,"pop":390115},{"name":"Ogden","country":"United States of America","lat":41.2324,"lon":-111.968,"pop":377224},{"name":"St. Charles","country":"United States of America","lat":38.7843,"lon":-90.5062,"pop":360485},{"name":"Columbia","country":"United States of America","lat":38.9521,"lon":-92.3339,"pop":398093},{"name":"New Haven","country":"United States of America","lat":41.3304,"lon":-72.9,"pop":846766},{"name":"Lowell","country":"United States of America","lat":42.6337,"lon":-71.3167,"pop":723629},{"name":"Fort Lauderdale","country":"United States of America","lat":26.1361,"lon":-80.1418,"pop":2042042},{"name":"Greenville","country":"United States of America","lat":34.8529,"lon":-82.3942,"pop":350954},{"name":"Aurora","country":"United States of America","lat":41.7654,"lon":-88.3,"pop":350000},{"name":"Gary","country":"United States of America","lat":41.5804,"lon":-87.33,"pop":591180},{"name":"Covington","country":"United States of America","lat":39.084,"lon":-84.5086,"pop":585489},{"name":"Akron","country":"United States of America","lat":41.0704,"lon":-81.52,"pop":703200},{"name":"Barcelona","country":"Venezuela","lat":10.1304,"lon":-64.72,"pop":600954},{"name":"Maiquetía","country":"Venezuela","lat":10.6004,"lon":-66.97,"pop":315442},{"name":"Grand Rapids","country":"United States of America","lat":42.9637,"lon":-85.6699,"pop":535829},{"name":"Málaga","country":"Spain","lat":36.7204,"lon":-4.42,"pop":550058},{"name":"Hamah","country":"Syria","lat":35.1503,"lon":36.73,"pop":460602},{"name":"Dayr az Zawr","country":"Syria","lat":35.3304,"lon":40.13,"pop":309141},{"name":"Simferopol","country":"Russia","lat":44.9492,"lon":34.0987,"pop":358108},{"name":"Kherson","country":"Ukraine","lat":46.6325,"lon":32.6007,"pop":320477},{"name":"Vinnytsya","country":"Ukraine","lat":49.2254,"lon":28.4816,"pop":352115},{"name":"Luhansk","country":"Ukraine","lat":48.5698,"lon":39.3344,"pop":452000},{"name":"Poltava","country":"Ukraine","lat":49.574,"lon":34.5703,"pop":317847},{"name":"Al Ayn","country":"United Arab Emirates","lat":24.2305,"lon":55.74,"pop":408733},{"name":"Shahrisabz","country":"Uzbekistan","lat":39.0618,"lon":66.8315,"pop":498545},{"name":"Qarshi","country":"Uzbekistan","lat":38.8704,"lon":65.8,"pop":386361},{"name":"Qoqon","country":"Uzbekistan","lat":40.5404,"lon":70.94,"pop":350000},{"name":"Samut Prakan","country":"Thailand","lat":13.6069,"lon":100.6115,"pop":388920},{"name":"Việt Trì","country":"Vietnam","lat":21.3304,"lon":105.43,"pop":350000},{"name":"Buon Me Thuot","country":"Vietnam","lat":12.667,"lon":108.05,"pop":349945},{"name":"Phan Thiet","country":"Vietnam","lat":10.9337,"lon":108.1001,"pop":336846},{"name":"Long Xuyen","country":"Vietnam","lat":10.3804,"lon":105.42,"pop":350000},{"name":"Cà Mau","country":"Vietnam","lat":9.1774,"lon":105.15,"pop":356636},{"name":"San Sebastián","country":"Spain","lat":43.3204,"lon":-1.98,"pop":357468},{"name":"Middlesbrough","country":"United Kingdom","lat":54.5804,"lon":-1.23,"pop":416042},{"name":"Coventry","country":"United Kingdom","lat":52.4007,"lon":-1.5027,"pop":388271},{"name":"Kingston upon Hull","country":"United Kingdom","lat":53.7504,"lon":-0.33,"pop":302296},{"name":"İzmit","country":"Turkey","lat":40.776,"lon":29.9306,"pop":466504},{"name":"Denizli","country":"Turkey","lat":37.7704,"lon":29.08,"pop":372344},{"name":"Malatya","country":"Turkey","lat":38.3704,"lon":38.3,"pop":461574},{"name":"Tarsus","country":"Turkey","lat":36.9204,"lon":34.88,"pop":894318},{"name":"Erzurum","country":"Turkey","lat":39.9204,"lon":41.29,"pop":420691},{"name":"Diyarbakır","country":"Turkey","lat":37.9204,"lon":40.23,"pop":644763},{"name":"Yeosu","country":"South Korea","lat":34.7368,"lon":127.7458,"pop":341994},{"name":"Jeju","country":"South Korea","lat":33.5101,"lon":126.5219,"pop":408364},{"name":"Brighton","country":"United Kingdom","lat":50.8303,"lon":-0.17,"pop":503008},{"name":"Portsmouth","country":"United Kingdom","lat":50.8003,"lon":-1.08,"pop":442252},{"name":"Nottingham","country":"United Kingdom","lat":52.9411,"lon":-1.1657,"pop":825600},{"name":"Stoke","country":"United Kingdom","lat":53.0004,"lon":-2.18,"pop":390801},{"name":"Batman","country":"Turkey","lat":37.8904,"lon":41.14,"pop":302074},{"name":"Van","country":"Turkey","lat":38.4954,"lon":43.4,"pop":371713},{"name":"Jinja","country":"Uganda","lat":0.4404,"lon":33.1999,"pop":301619},{"name":"Mbale","country":"Uganda","lat":1.0904,"lon":34.17,"pop":402368},{"name":"Moshi","country":"Tanzania","lat":-3.3396,"lon":37.34,"pop":721018},{"name":"Basel","country":"Switzerland","lat":47.5804,"lon":7.59,"pop":830000},{"name":"Alicante","country":"Spain","lat":38.3512,"lon":-0.4836,"pop":315863},{"name":"Craiova","country":"Romania","lat":44.3263,"lon":23.8259,"pop":304142},{"name":"Timișoara","country":"Romania","lat":45.7588,"lon":21.2234,"pop":315053},{"name":"Brașov","country":"Romania","lat":45.6475,"lon":25.6072,"pop":311044},{"name":"Buraydah","country":"Saudi Arabia","lat":26.3664,"lon":43.9628,"pop":398581},{"name":"Hail","country":"Saudi Arabia","lat":27.5236,"lon":41.7001,"pop":385257},{"name":"Utrecht","country":"Netherlands","lat":52.1003,"lon":5.12,"pop":640000},{"name":"Kaunas","country":"Lithuania","lat":54.9504,"lon":23.88,"pop":374643},{"name":"Dammam","country":"Saudi Arabia","lat":26.4301,"lon":50.0977,"pop":2054710},{"name":"Jhang","country":"Pakistan","lat":31.2804,"lon":72.325,"pop":341210},{"name":"Sargodha","country":"Pakistan","lat":32.0854,"lon":72.675,"pop":542603},{"name":"Osh","country":"Kyrgyzstan","lat":40.5404,"lon":72.79,"pop":391277},{"name":"Bannu","country":"Pakistan","lat":32.989,"lon":70.5986,"pop":622419},{"name":"Butterworth","country":"Malaysia","lat":5.4171,"lon":100.4,"pop":821652},{"name":"Sungai Petani","country":"Malaysia","lat":5.6497,"lon":100.4793,"pop":358499},{"name":"Alor Setar","country":"Malaysia","lat":6.1133,"lon":100.3729,"pop":336475},{"name":"Seremban","country":"Malaysia","lat":2.7105,"lon":101.94,"pop":372917},{"name":"Kuala Terengganu","country":"Malaysia","lat":5.3304,"lon":103.12,"pop":350210},{"name":"Mbombela","country":"South Africa","lat":-25.4696,"lon":30.98,"pop":348138},{"name":"Haarlem","country":"Netherlands","lat":52.3804,"lon":4.63,"pop":349957},{"name":"Ksar El Kebir","country":"Morocco","lat":35.0204,"lon":-5.91,"pop":306600},{"name":"Kenitra","country":"Morocco","lat":34.2704,"lon":-6.58,"pop":551786},{"name":"Meknes","country":"Morocco","lat":33.9004,"lon":-5.56,"pop":697628},{"name":"Matola","country":"Mozambique","lat":-25.9696,"lon":32.46,"pop":543907},{"name":"Vladikavkaz","country":"Russia","lat":43.0504,"lon":44.67,"pop":364630},{"name":"Cherepovets","country":"Russia","lat":59.1404,"lon":37.91,"pop":311850},{"name":"Kaluga","country":"Russia","lat":54.5204,"lon":36.27,"pop":338978},{"name":"Podolsk","country":"Russia","lat":55.3804,"lon":37.5299,"pop":320635},{"name":"Volzhskiy","country":"Russia","lat":48.7948,"lon":44.7744,"pop":323293},{"name":"Saransk","country":"Russia","lat":54.1704,"lon":45.18,"pop":303394},{"name":"Yoshkar Ola","country":"Russia","lat":56.6354,"lon":47.8749,"pop":324406},{"name":"Tolyatti","country":"Russia","lat":53.5081,"lon":49.4201,"pop":702879},{"name":"Jeonju","country":"South Korea","lat":35.8314,"lon":127.1404,"pop":711424},{"name":"Olongapo","country":"Philippines","lat":14.8296,"lon":120.2828,"pop":304388},{"name":"Quezon City","country":"Philippines","lat":14.6504,"lon":121.03,"pop":2761720},{"name":"Pasay City","country":"Philippines","lat":14.5504,"lon":121,"pop":403064},{"name":"Iligan","country":"Philippines","lat":8.1712,"lon":124.2154,"pop":464599},{"name":"Mazatlán","country":"Mexico","lat":29.0171,"lon":-110.1333,"pop":500000},{"name":"Morelia","country":"Mexico","lat":19.7334,"lon":-101.1895,"pop":644306},{"name":"Tepic","country":"Mexico","lat":21.5054,"lon":-104.88,"pop":318781},{"name":"Pachuca","country":"Mexico","lat":20.1064,"lon":-98.7356,"pop":319581},{"name":"Toluca","country":"Mexico","lat":19.2893,"lon":-99.6532,"pop":1531000},{"name":"Aba","country":"Nigeria","lat":5.1004,"lon":7.35,"pop":897560},{"name":"Calabar","country":"Nigeria","lat":4.9604,"lon":8.33,"pop":461796},{"name":"Abeokuta","country":"Nigeria","lat":7.1604,"lon":3.35,"pop":593100},{"name":"Akure","country":"Nigeria","lat":7.2504,"lon":5.2,"pop":420594},{"name":"Ikare","country":"Nigeria","lat":7.5304,"lon":5.76,"pop":1099931},{"name":"Ado Ekiti","country":"Nigeria","lat":7.6304,"lon":5.22,"pop":446749},{"name":"Ife","country":"Nigeria","lat":7.4804,"lon":4.56,"pop":482365},{"name":"Oshogbo","country":"Nigeria","lat":7.7704,"lon":4.56,"pop":408245},{"name":"Oyo","country":"Nigeria","lat":7.8504,"lon":3.93,"pop":736072},{"name":"Awka","country":"Nigeria","lat":6.2104,"lon":7.07,"pop":500000},{"name":"Bauchi","country":"Nigeria","lat":10.3104,"lon":9.84,"pop":316149},{"name":"Sapele","country":"Nigeria","lat":5.8904,"lon":5.68,"pop":309162},{"name":"Katsina","country":"Nigeria","lat":12.9904,"lon":7.6,"pop":432149},{"name":"Gdynia","country":"Poland","lat":54.5204,"lon":18.53,"pop":314664},{"name":"Wrocław","country":"Poland","lat":51.1104,"lon":17.03,"pop":634893},{"name":"Szczecin","country":"Poland","lat":53.4204,"lon":14.53,"pop":407811},{"name":"Poznań","country":"Poland","lat":52.4058,"lon":16.8999,"pop":623997},{"name":"Bydgoszcz","country":"Poland","lat":53.1204,"lon":18.01,"pop":366452},{"name":"Katowice","country":"Poland","lat":50.2604,"lon":19.02,"pop":2746000},{"name":"Gliwice","country":"Poland","lat":50.3304,"lon":18.67,"pop":507670},{"name":"Lublin","country":"Poland","lat":51.2504,"lon":22.5727,"pop":360044},{"name":"Binjai","country":"Indonesia","lat":3.6204,"lon":98.5001,"pop":564979},{"name":"Bukittinggi","country":"Indonesia","lat":-0.3031,"lon":100.3615,"pop":506964},{"name":"Mataram","country":"Indonesia","lat":-8.5795,"lon":116.135,"pop":499409},{"name":"Bologna","country":"Italy","lat":44.5004,"lon":11.34,"pop":488172},{"name":"Salerno","country":"Italy","lat":40.6804,"lon":14.7699,"pop":954265},{"name":"Bari","country":"Italy","lat":41.1142,"lon":16.8728,"pop":500577},{"name":"Pescara","country":"Italy","lat":42.4554,"lon":14.2187,"pop":314789},{"name":"Verona","country":"Italy","lat":45.4404,"lon":10.99,"pop":347459},{"name":"Longxi","country":"China","lat":35.0027,"lon":104.6715,"pop":355037},{"name":"Beihai","country":"China","lat":21.4804,"lon":109.1,"pop":728978},{"name":"Hechi","country":"China","lat":24.6953,"lon":108.083,"pop":3830000},{"name":"Changping","country":"China","lat":40.2248,"lon":116.1944,"pop":614821},{"name":"Longyan","country":"China","lat":25.0735,"lon":116.995,"pop":367896},{"name":"Zhangzhou","country":"China","lat":24.5204,"lon":117.67,"pop":3531147},{"name":"Putian","country":"China","lat":25.4303,"lon":119.02,"pop":376558},{"name":"Ninde","country":"China","lat":26.6804,"lon":119.5301,"pop":314077},{"name":"Tongling","country":"China","lat":30.9504,"lon":117.78,"pop":562832},{"name":"Maanshan","country":"China","lat":31.6726,"lon":118.4851,"pop":1366302},{"name":"Yangjiang","country":"China","lat":21.8504,"lon":111.97,"pop":872363},{"name":"Meizhou","country":"China","lat":24.3005,"lon":116.12,"pop":414930},{"name":"Heyuan","country":"China","lat":23.7304,"lon":114.68,"pop":330961},{"name":"Qingyuan","country":"China","lat":23.7004,"lon":113.0301,"pop":706717},{"name":"Zhaoqing","country":"China","lat":23.0504,"lon":112.45,"pop":480000},{"name":"Jiangmen","country":"China","lat":22.5804,"lon":113.08,"pop":532419},{"name":"Maoming","country":"China","lat":21.9204,"lon":110.87,"pop":1217715},{"name":"Cilacap","country":"Indonesia","lat":-7.7188,"lon":109.0154,"pop":1174964},{"name":"Bekasi","country":"Indonesia","lat":-6.2173,"lon":106.9723,"pop":2378211},{"name":"Bandar Lampung","country":"Indonesia","lat":-5.4496,"lon":105.3,"pop":881801},{"name":"Pasuruan","country":"Indonesia","lat":-7.6296,"lon":112.9,"pop":500000},{"name":"Grenoble","country":"France","lat":45.1804,"lon":5.72,"pop":388574},{"name":"Armenia","country":"Colombia","lat":4.5343,"lon":-75.6811,"pop":315328},{"name":"Pereira","country":"Colombia","lat":4.8104,"lon":-75.68,"pop":568750},{"name":"Neiva","country":"Colombia","lat":2.931,"lon":-75.3302,"pop":352855},{"name":"Tanta","country":"Egypt","lat":30.7904,"lon":31,"pop":404901},{"name":"Ismaïlia","country":"Egypt","lat":30.5903,"lon":32.26,"pop":656135},{"name":"El Mansura","country":"Egypt","lat":31.0504,"lon":31.38,"pop":600000},{"name":"Damanhûr","country":"Egypt","lat":31.0504,"lon":30.47,"pop":500000},{"name":"Beni Suef","country":"Egypt","lat":29.0804,"lon":31.09,"pop":489450},{"name":"Qena","country":"Egypt","lat":26.1505,"lon":32.72,"pop":302027},{"name":"Sohag","country":"Egypt","lat":26.5504,"lon":31.7,"pop":600000},{"name":"Bonn","country":"Germany","lat":50.7205,"lon":7.08,"pop":680543},{"name":"Düsseldorf","country":"Germany","lat":51.2204,"lon":6.78,"pop":1220000},{"name":"Mannheim","country":"Germany","lat":49.5004,"lon":8.47,"pop":2362000},{"name":"Wiesbaden","country":"Germany","lat":50.0804,"lon":8.25,"pop":617126},{"name":"Hanover","country":"Germany","lat":52.367,"lon":9.7167,"pop":722490},{"name":"Koblenz","country":"Germany","lat":50.3505,"lon":7.6,"pop":312633},{"name":"Saarbrücken","country":"Germany","lat":49.2504,"lon":6.97,"pop":770001},{"name":"Brno","country":"Czechia","lat":49.2004,"lon":16.61,"pop":388277},{"name":"Leipzig","country":"Germany","lat":51.3354,"lon":12.41,"pop":542529},{"name":"Ostrava","country":"Czechia","lat":49.8304,"lon":18.25,"pop":478963},{"name":"Turpan","country":"China","lat":42.9354,"lon":89.165,"pop":651853},{"name":"Shuozhou","country":"China","lat":39.3004,"lon":112.42,"pop":570000},{"name":"Jincheng","country":"China","lat":35.5004,"lon":112.83,"pop":760000},{"name":"Changzhi","country":"China","lat":36.1839,"lon":113.1053,"pop":706000},{"name":"Jingmen","country":"China","lat":31.0314,"lon":112.201,"pop":400000},{"name":"Chenzhou","country":"China","lat":25.8004,"lon":113.0301,"pop":322997},{"name":"Xiangtan","country":"China","lat":27.8504,"lon":112.9,"pop":2586948},{"name":"Zigong","country":"China","lat":29.4019,"lon":104.7781,"pop":1105000},{"name":"Yaan","country":"China","lat":29.9804,"lon":103.08,"pop":340000},{"name":"Zhanyi","country":"China","lat":25.6005,"lon":103.8166,"pop":652604},{"name":"Chengde","country":"China","lat":40.9604,"lon":117.93,"pop":449325},{"name":"Cangzhou","country":"China","lat":38.3204,"lon":116.87,"pop":527681},{"name":"Baoding","country":"China","lat":38.8583,"lon":115.4689,"pop":1107000},{"name":"Xiangtai","country":"China","lat":37.05,"lon":114.5,"pop":611739},{"name":"Puyang","country":"China","lat":35.7004,"lon":114.98,"pop":666322},{"name":"Xuchang","country":"China","lat":34.0204,"lon":113.82,"pop":449258},{"name":"Zhoukou","country":"China","lat":33.6304,"lon":114.63,"pop":377061},{"name":"Tieling","country":"China","lat":42.3004,"lon":123.82,"pop":340000},{"name":"Chaoyang","country":"China","lat":41.5504,"lon":120.42,"pop":470296},{"name":"Rizhao","country":"China","lat":35.4304,"lon":119.45,"pop":865000},{"name":"Dezhou","country":"China","lat":37.4504,"lon":116.3,"pop":379555},{"name":"Jian","country":"China","lat":27.1304,"lon":115,"pop":520248},{"name":"Shangrao","country":"China","lat":28.4704,"lon":117.97,"pop":1144577},{"name":"Jingdezhen","country":"China","lat":29.2704,"lon":117.18,"pop":457298},{"name":"Taizhou","country":"China","lat":32.4904,"lon":119.9,"pop":612356},{"name":"Shuyang","country":"China","lat":34.1299,"lon":118.7734,"pop":1770000},{"name":"Lianyungang","country":"China","lat":34.587,"lon":119.2262,"pop":715600},{"name":"Jiaojing","country":"China","lat":28.6804,"lon":121.45,"pop":471500},{"name":"Quzhou","country":"China","lat":28.9704,"lon":118.87,"pop":370000},{"name":"Songyuan","country":"China","lat":45.1804,"lon":124.82,"pop":495900},{"name":"Kitakyūshū","country":"Japan","lat":33.8704,"lon":130.82,"pop":997536},{"name":"Kumamoto","country":"Japan","lat":32.8009,"lon":130.7006,"pop":718232},{"name":"Ōita","country":"Japan","lat":33.2432,"lon":131.5979,"pop":448907},{"name":"Shuangyashan","country":"China","lat":46.6704,"lon":131.35,"pop":500000},{"name":"Gifu","country":"Japan","lat":35.4231,"lon":136.7628,"pop":412895},{"name":"Tsu","country":"Japan","lat":34.7171,"lon":136.5167,"pop":500000},{"name":"Shizuoka","country":"Japan","lat":34.9858,"lon":138.3854,"pop":701561},{"name":"Hamamatsu","country":"Japan","lat":34.7181,"lon":137.7327,"pop":977023},{"name":"Wakayama","country":"Japan","lat":34.2231,"lon":135.1677,"pop":440006},{"name":"Mito","country":"Japan","lat":36.3704,"lon":140.48,"pop":353892},{"name":"Iwaki","country":"Japan","lat":37.0553,"lon":140.89,"pop":357309},{"name":"Beni","country":"Congo (Kinshasa)","lat":0.4904,"lon":29.45,"pop":332903},{"name":"Tamale","country":"Ghana","lat":9.4004,"lon":-0.84,"pop":360579},{"name":"Rajahmundry","country":"India","lat":17.0303,"lon":81.79,"pop":304804},{"name":"Nizamabad","country":"India","lat":18.6704,"lon":78.1,"pop":388505},{"name":"Kollam","country":"India","lat":8.9004,"lon":76.57,"pop":394163},{"name":"Sambalpur","country":"India","lat":21.4704,"lon":83.9701,"pop":310852},{"name":"Raurkela","country":"India","lat":22.2304,"lon":84.83,"pop":625831},{"name":"Shivamogga","country":"India","lat":13.9304,"lon":75.56,"pop":654055},{"name":"Bidar","country":"India","lat":17.9229,"lon":77.5175,"pop":300136},{"name":"Sangli","country":"India","lat":16.8604,"lon":74.575,"pop":601214},{"name":"Parbhani","country":"India","lat":19.2704,"lon":76.76,"pop":378326},{"name":"Malegaon","country":"India","lat":20.5604,"lon":74.525,"pop":690844},{"name":"Shillong","country":"India","lat":25.5705,"lon":91.88,"pop":375527},{"name":"Nantes","country":"France","lat":47.2104,"lon":-1.59,"pop":438537},{"name":"Toulon","country":"France","lat":43.1342,"lon":5.9188,"pop":357693},{"name":"Montpellier","country":"France","lat":43.6104,"lon":3.87,"pop":327254},{"name":"Rouen","country":"France","lat":49.4304,"lon":1.08,"pop":532559},{"name":"Metz","country":"France","lat":49.1203,"lon":6.18,"pop":409186},{"name":"Haifa","country":"Israel","lat":32.8224,"lon":34.9781,"pop":1011000},{"name":"Karbala","country":"Iraq","lat":32.6149,"lon":44.0245,"pop":510692},{"name":"Khomeini Shahr","country":"Iran","lat":32.7004,"lon":51.47,"pop":437138},{"name":"Karaj","country":"Iran","lat":35.8023,"lon":50.9681,"pop":1423000},{"name":"Dezful","country":"Iran","lat":32.3804,"lon":48.47,"pop":315482},{"name":"Khorramabad","country":"Iran","lat":33.4804,"lon":48.35,"pop":375198},{"name":"An Nasiriyah","country":"Iraq","lat":31.0429,"lon":46.2676,"pop":451547},{"name":"Al Amarah","country":"Iraq","lat":31.8416,"lon":47.1512,"pop":345007},{"name":"Al Kut","country":"Iraq","lat":32.4907,"lon":45.8304,"pop":321521},{"name":"Arak","country":"Iran","lat":34.0804,"lon":49.7,"pop":503647},{"name":"As Sulaymaniyah","country":"Iraq","lat":35.5613,"lon":45.4309,"pop":723170},{"name":"Patiala","country":"India","lat":30.3204,"lon":76.385,"pop":329224},{"name":"Bhilwara","country":"India","lat":25.3504,"lon":74.635,"pop":389911},{"name":"Sikar","country":"India","lat":27.6104,"lon":75.14,"pop":400000},{"name":"Bikaner","country":"India","lat":28.0151,"lon":73.3322,"pop":576015},{"name":"Jhansi","country":"India","lat":25.453,"lon":78.5575,"pop":826494},{"name":"Shahjahanpur","country":"India","lat":27.8804,"lon":79.905,"pop":320434},{"name":"Bareilly","country":"India","lat":28.3473,"lon":79.4181,"pop":817000},{"name":"Dehra Dun","country":"India","lat":30.3204,"lon":78.05,"pop":714223},{"name":"Haora","country":"India","lat":22.5847,"lon":88.3185,"pop":4841638},{"name":"Bhatpara","country":"India","lat":22.8528,"lon":88.4136,"pop":483129},{"name":"Siliguri","country":"India","lat":26.7204,"lon":88.455,"pop":515574},{"name":"Muzaffarpur","country":"India","lat":26.1204,"lon":85.3799,"pop":333200},{"name":"Bilaspur","country":"India","lat":22.0904,"lon":82.16,"pop":543454},{"name":"Ujjain","country":"India","lat":23.1904,"lon":75.79,"pop":513350},{"name":"Ratlam","country":"India","lat":23.3504,"lon":75.03,"pop":307229},{"name":"Sagar","country":"India","lat":23.8504,"lon":78.75,"pop":328240},{"name":"Rajapalaiyam","country":"India","lat":9.4204,"lon":77.58,"pop":369991},{"name":"Tirunelveli","country":"India","lat":8.7304,"lon":77.69,"pop":542200},{"name":"Tiruppur","country":"India","lat":11.0804,"lon":77.33,"pop":650000},{"name":"Bhavnagar","country":"India","lat":21.7784,"lon":72.13,"pop":554978},{"name":"Al Hillah","country":"Iraq","lat":32.4721,"lon":44.4217,"pop":594605},{"name":"Ipatinga","country":"Brazil","lat":-19.4796,"lon":-42.52,"pop":407894},{"name":"Novo Hamburgo","country":"Brazil","lat":-29.7096,"lon":-51.14,"pop":876990},{"name":"Maringá","country":"Brazil","lat":-23.4095,"lon":-51.93,"pop":328335},{"name":"Foz do Iguaçu","country":"Brazil","lat":-25.5235,"lon":-54.53,"pop":440455},{"name":"Itajaí","country":"Brazil","lat":-26.8996,"lon":-48.68,"pop":327126},{"name":"Volta Redonda","country":"Brazil","lat":-22.5196,"lon":-44.095,"pop":456362},{"name":"Anápolis","country":"Brazil","lat":-16.3196,"lon":-48.96,"pop":319587},{"name":"La Plata","country":"Argentina","lat":-34.9233,"lon":-57.9544,"pop":694253},{"name":"São José do Rio Preto","country":"Brazil","lat":-20.7996,"lon":-49.39,"pop":374699},{"name":"Taubaté","country":"Brazil","lat":-23.0195,"lon":-45.56,"pop":403560},{"name":"Charleroi","country":"Belgium","lat":50.4204,"lon":4.45,"pop":345367},{"name":"Jalalabad","country":"Afghanistan","lat":34.4415,"lon":70.4361,"pop":597971},{"name":"Mymensingh","country":"Bangladesh","lat":24.7504,"lon":90.38,"pop":330126},{"name":"Chlef","country":"Algeria","lat":36.1704,"lon":1.32,"pop":449167},{"name":"Béjaïa","country":"Algeria","lat":36.7604,"lon":5.07,"pop":384937},{"name":"Blida","country":"Algeria","lat":36.4203,"lon":2.83,"pop":511348},{"name":"Varna","country":"Bulgaria","lat":43.2156,"lon":27.8953,"pop":312770},{"name":"Linz","country":"Austria","lat":48.3192,"lon":14.2888,"pop":349161},{"name":"Mahilyow","country":"Belarus","lat":53.8985,"lon":30.3246,"pop":369200},{"name":"Hrodna","country":"Belarus","lat":53.6779,"lon":23.8341,"pop":317365},{"name":"Comilla","country":"Bangladesh","lat":23.4704,"lon":91.17,"pop":389411},{"name":"Cranbourne","country":"Australia","lat":-38.0996,"lon":145.2834,"pop":460491},{"name":"Mawlamyine","country":"Myanmar","lat":16.5004,"lon":97.67,"pop":438861},{"name":"Bucheon","country":"South Korea","lat":37.5008,"lon":126.7811,"pop":866000},{"name":"Songnam","country":"South Korea","lat":37.4406,"lon":127.1358,"pop":942000},{"name":"Goyang","country":"South Korea","lat":37.6547,"lon":126.8353,"pop":903000},{"name":"Changhua","country":"Taiwan","lat":24.0734,"lon":120.5134,"pop":750000},{"name":"Chiayi","country":"Taiwan","lat":23.4755,"lon":120.4351,"pop":500000},{"name":"Hsinchu","country":"Taiwan","lat":24.8168,"lon":120.9767,"pop":750000},{"name":"Pingtung","country":"Taiwan","lat":22.6817,"lon":120.4817,"pop":503530},{"name":"Tacoma","country":"United States of America","lat":47.2406,"lon":-122.4468,"pop":719868},{"name":"Long Beach","country":"United States of America","lat":33.777,"lon":-118.2003,"pop":2036134},{"name":"Provo","country":"United States of America","lat":40.2489,"lon":-111.6378,"pop":356712},{"name":"Wichita","country":"United States of America","lat":37.6763,"lon":-97.3277,"pop":401843},{"name":"Barquisimeto","country":"Venezuela","lat":10.0519,"lon":-69.3019,"pop":1116000},{"name":"Hartford","country":"United States of America","lat":41.772,"lon":-72.6819,"pop":913000},{"name":"Providence","country":"United States of America","lat":41.823,"lon":-71.4169,"pop":1277000},{"name":"Birmingham","country":"United States of America","lat":33.53,"lon":-86.825,"pop":1128047},{"name":"St. Petersburg","country":"United States of America","lat":27.7705,"lon":-82.6794,"pop":800313},{"name":"Greensboro","country":"United States of America","lat":36.07,"lon":-79.8,"pop":388887},{"name":"Dayton","country":"United States of America","lat":39.7523,"lon":-84.2019,"pop":773000},{"name":"Virginia Beach","country":"United States of America","lat":36.8552,"lon":-75.9803,"pop":1491000},{"name":"Madison","country":"United States of America","lat":43.073,"lon":-89.4011,"pop":327447},{"name":"Trenton","country":"United States of America","lat":40.217,"lon":-74.7434,"pop":366513},{"name":"Maturín","country":"Venezuela","lat":9.75,"lon":-63.17,"pop":410972},{"name":"Cumaná","country":"Venezuela","lat":10.45,"lon":-64.18,"pop":317603},{"name":"Granada‎","country":"Spain","lat":37.165,"lon":-3.585,"pop":388290},{"name":"Zaporizhzhya","country":"Ukraine","lat":47.8592,"lon":35.1749,"pop":788000},{"name":"Fargona","country":"Uzbekistan","lat":40.39,"lon":71.78,"pop":750000},{"name":"Namangan","country":"Uzbekistan","lat":41,"lon":71.67,"pop":750000},{"name":"Khujand","country":"Tajikistan","lat":40.29,"lon":69.6199,"pop":437684},{"name":"Thái Nguyên","country":"Vietnam","lat":21.6,"lon":105.83,"pop":500000},{"name":"Vinh","country":"Vietnam","lat":18.7,"lon":105.68,"pop":593645},{"name":"San Pedro Sula","country":"Honduras","lat":15.5,"lon":-88.03,"pop":680091},{"name":"Murcia","country":"Spain","lat":37.98,"lon":-1.13,"pop":406807},{"name":"La Coruña","country":"Spain","lat":43.33,"lon":-8.42,"pop":370610},{"name":"Edinburgh","country":"United Kingdom","lat":55.9483,"lon":-3.2191,"pop":504966},{"name":"Newcastle","country":"United Kingdom","lat":54.9897,"lon":-1.6116,"pop":882000},{"name":"Liverpool","country":"United Kingdom","lat":53.4051,"lon":-2.9619,"pop":811000},{"name":"Cardiff","country":"United Kingdom","lat":51.4826,"lon":-3.1676,"pop":861400},{"name":"Trabzon","country":"Turkey","lat":40.98,"lon":39.72,"pop":764714},{"name":"Suwon","country":"South Korea","lat":37.2597,"lon":127.0089,"pop":1078000},{"name":"Leeds","country":"United Kingdom","lat":53.79,"lon":-1.5513,"pop":1529000},{"name":"Şanlıurfa","country":"Turkey","lat":37.17,"lon":38.795,"pop":449549},{"name":"Chiclayo","country":"Peru","lat":-6.7629,"lon":-79.8366,"pop":596792},{"name":"Callao","country":"Peru","lat":-12.07,"lon":-77.135,"pop":876877},{"name":"Porto","country":"Portugal","lat":41.152,"lon":-8.6219,"pop":1337000},{"name":"Rotterdam","country":"Netherlands","lat":51.9219,"lon":4.478,"pop":1005000},{"name":"Hofuf","country":"Saudi Arabia","lat":25.3487,"lon":49.5856,"pop":637389},{"name":"Faisalabad","country":"Pakistan","lat":31.4119,"lon":73.1081,"pop":2617000},{"name":"Rawalpindi","country":"Pakistan","lat":33.591,"lon":73.0675,"pop":1858000},{"name":"Bahawalpur","country":"Pakistan","lat":29.39,"lon":71.675,"pop":552607},{"name":"Mirpur Khas","country":"Pakistan","lat":25.5318,"lon":69.0118,"pop":356435},{"name":"Sukkur","country":"Pakistan","lat":27.7136,"lon":68.8486,"pop":417767},{"name":"Saidu","country":"Pakistan","lat":34.75,"lon":72.35,"pop":1860310},{"name":"Johor Bahru","country":"Malaysia","lat":1.482,"lon":103.7281,"pop":875000},{"name":"Kelang","country":"Malaysia","lat":3.0433,"lon":101.4471,"pop":956000},{"name":"Benoni","country":"South Africa","lat":-26.1476,"lon":28.328,"pop":2986000},{"name":"Vereeniging","country":"South Africa","lat":-26.6477,"lon":27.958,"pop":1074000},{"name":"Kursk","country":"Russia","lat":51.74,"lon":36.19,"pop":409431},{"name":"Tula","country":"Russia","lat":54.2,"lon":37.6299,"pop":489486},{"name":"Tambov","country":"Russia","lat":52.73,"lon":41.43,"pop":301482},{"name":"Kurgan","country":"Russia","lat":55.46,"lon":65.345,"pop":343129},{"name":"Cheboksary","country":"Russia","lat":56.13,"lon":47.25,"pop":446781},{"name":"Makhachkala","country":"Russia","lat":42.98,"lon":47.5,"pop":554981},{"name":"Pohang","country":"South Korea","lat":36.0209,"lon":129.3715,"pop":435266},{"name":"Ulsan","country":"South Korea","lat":35.5487,"lon":129.315,"pop":1061000},{"name":"Daegu","country":"South Korea","lat":35.8687,"lon":128.605,"pop":2460000},{"name":"Legazpi","country":"Philippines","lat":13.17,"lon":123.75,"pop":320081},{"name":"Saltillo","country":"Mexico","lat":25.4219,"lon":-101.0069,"pop":754000},{"name":"Ciudad Juárez","country":"Mexico","lat":31.6923,"lon":-106.492,"pop":1343000},{"name":"Durango","country":"Mexico","lat":24.0311,"lon":-104.67,"pop":457140},{"name":"Aguascalientes","country":"Mexico","lat":21.8814,"lon":-102.2924,"pop":869000},{"name":"Villahermosa","country":"Mexico","lat":18,"lon":-92.9,"pop":428564},{"name":"Cuernavaca","country":"Mexico","lat":18.9211,"lon":-99.24,"pop":834001},{"name":"Querétaro","country":"Mexico","lat":20.5777,"lon":-100.3867,"pop":961000},{"name":"Nampo","country":"North Korea","lat":38.7689,"lon":125.4505,"pop":1127000},{"name":"Chongjin","country":"North Korea","lat":41.7846,"lon":129.79,"pop":672614},{"name":"Hamhung","country":"North Korea","lat":39.912,"lon":127.5435,"pop":773000},{"name":"Turin","country":"Italy","lat":45.0723,"lon":7.668,"pop":1652000},{"name":"Liuzhou","country":"China","lat":24.3208,"lon":109.4135,"pop":1497000},{"name":"Xingyi","country":"China","lat":25.0924,"lon":104.8881,"pop":816000},{"name":"Anshun","country":"China","lat":26.2523,"lon":105.9281,"pop":849000},{"name":"Zunyi","country":"China","lat":27.702,"lon":106.9181,"pop":849000},{"name":"Wanzhou","country":"China","lat":30.82,"lon":108.4,"pop":1680000},{"name":"Huaibei","country":"China","lat":33.9523,"lon":116.7481,"pop":913000},{"name":"Wuhu","country":"China","lat":31.3524,"lon":118.368,"pop":810000},{"name":"Luan","country":"China","lat":31.7523,"lon":116.4781,"pop":1690000},{"name":"Bengbu","country":"China","lat":32.9519,"lon":117.3281,"pop":894000},{"name":"Anqing","country":"China","lat":30.5,"lon":117.05,"pop":580497},{"name":"Foshan","country":"China","lat":23.0105,"lon":113.1136,"pop":943000},{"name":"Denpasar","country":"Indonesia","lat":-8.65,"lon":115.22,"pop":732344},{"name":"Bello","country":"Colombia","lat":6.33,"lon":-75.57,"pop":519670},{"name":"Bucaramanga","country":"Colombia","lat":7.132,"lon":-73.1278,"pop":1009000},{"name":"Camagüey","country":"Cuba","lat":21.3808,"lon":-77.9169,"pop":347562},{"name":"Holguín","country":"Cuba","lat":20.8872,"lon":-76.2631,"pop":319102},{"name":"Ibagué","country":"Colombia","lat":4.4389,"lon":-75.2322,"pop":421685},{"name":"Santa Marta","country":"Colombia","lat":11.2472,"lon":-74.2017,"pop":431781},{"name":"Cúcuta","country":"Colombia","lat":7.92,"lon":-72.52,"pop":722146},{"name":"Villavicencio","country":"Colombia","lat":4.1533,"lon":-73.635,"pop":374763},{"name":"Giza","country":"Egypt","lat":30.01,"lon":31.19,"pop":2681863},{"name":"Stuttgart","country":"Germany","lat":48.78,"lon":9.2,"pop":2944700},{"name":"Bremen","country":"Germany","lat":53.08,"lon":8.8,"pop":724909},{"name":"Nürnberg","country":"Germany","lat":49.45,"lon":11.08,"pop":737304},{"name":"Korla","country":"China","lat":41.73,"lon":86.15,"pop":613000},{"name":"Kuqa","country":"China","lat":41.7277,"lon":82.9364,"pop":470600},{"name":"Shihezi","country":"China","lat":44.3,"lon":86.0299,"pop":640000},{"name":"Aksu","country":"China","lat":41.15,"lon":80.25,"pop":695000},{"name":"Sanya","country":"China","lat":18.2591,"lon":109.504,"pop":362689},{"name":"Haikou","country":"China","lat":20.05,"lon":110.32,"pop":2046189},{"name":"Baoji","country":"China","lat":34.38,"lon":107.15,"pop":800000},{"name":"Linfen","country":"China","lat":36.0823,"lon":111.5181,"pop":834000},{"name":"Yuci","country":"China","lat":37.6823,"lon":112.7281,"pop":840000},{"name":"Datong","country":"China","lat":40.082,"lon":113.2981,"pop":1873000},{"name":"Jianmen","country":"China","lat":30.652,"lon":113.1581,"pop":1708000},{"name":"Yichang","country":"China","lat":30.7019,"lon":111.2781,"pop":875000},{"name":"Xiantao","country":"China","lat":30.3724,"lon":113.4381,"pop":1556000},{"name":"Huangshi","country":"China","lat":30.22,"lon":115.1,"pop":688090},{"name":"Zhuzhou","country":"China","lat":27.8319,"lon":113.1481,"pop":1080000},{"name":"Yongzhou","country":"China","lat":26.4179,"lon":111.6091,"pop":1000000},{"name":"Yiyang","country":"China","lat":28.6024,"lon":112.3281,"pop":1352000},{"name":"Changde","country":"China","lat":29.0319,"lon":111.6781,"pop":1469000},{"name":"Leshan","country":"China","lat":29.569,"lon":103.7314,"pop":1157000},{"name":"Panzhihua","country":"China","lat":26.55,"lon":101.73,"pop":461513},{"name":"Guangyuan","country":"China","lat":32.43,"lon":105.87,"pop":437435},{"name":"Luzhou","country":"China","lat":28.8819,"lon":105.3781,"pop":1537000},{"name":"Yibin","country":"China","lat":28.7719,"lon":104.5681,"pop":902000},{"name":"Zhaotang","country":"China","lat":27.3223,"lon":103.7181,"pop":809000},{"name":"Yuxi","country":"China","lat":24.38,"lon":102.57,"pop":396325},{"name":"Qinhuangdao","country":"China","lat":39.9323,"lon":119.6181,"pop":1003000},{"name":"Langfang","country":"China","lat":39.5223,"lon":116.6781,"pop":810000},{"name":"Zhangjiakou","country":"China","lat":40.8053,"lon":114.852,"pop":1046000},{"name":"Tangshan","country":"China","lat":39.6263,"lon":118.1924,"pop":1879000},{"name":"Anyang","country":"China","lat":36.0819,"lon":114.3481,"pop":887000},{"name":"Jiaozuo","country":"China","lat":35.2007,"lon":113.2596,"pop":857000},{"name":"Kaifeng","country":"China","lat":34.7938,"lon":114.3548,"pop":872000},{"name":"Shangqiu","country":"China","lat":34.4129,"lon":115.6496,"pop":1753000},{"name":"Pingdingshan","country":"China","lat":33.7324,"lon":113.2981,"pop":849000},{"name":"Xinyang","country":"China","lat":32.1323,"lon":114.068,"pop":1541000},{"name":"Xinxiang","country":"China","lat":35.3016,"lon":113.9089,"pop":903000},{"name":"Luoyang","country":"China","lat":34.6438,"lon":112.4445,"pop":1715000},{"name":"Liaoyang","country":"China","lat":41.2819,"lon":123.1781,"pop":794000},{"name":"Dandong","country":"China","lat":40.1456,"lon":124.3916,"pop":870000},{"name":"Yingkow","country":"China","lat":40.6723,"lon":122.2781,"pop":795000},{"name":"Jinzhou","country":"China","lat":41.1223,"lon":121.0981,"pop":956000},{"name":"Fuxin","country":"China","lat":42.0124,"lon":121.6581,"pop":770000},{"name":"Benxi","country":"China","lat":41.3323,"lon":123.7481,"pop":1012000},{"name":"Fushun","country":"China","lat":41.8673,"lon":123.8681,"pop":1470000},{"name":"Jining","country":"China","lat":35.4024,"lon":116.5481,"pop":1186000},{"name":"Weifang","country":"China","lat":36.7023,"lon":119.1556,"pop":1553000},{"name":"Taian","country":"China","lat":36.2019,"lon":117.1181,"pop":1629000},{"name":"Heze","country":"China","lat":35.2319,"lon":115.4481,"pop":1338000},{"name":"Xinyu","country":"China","lat":27.802,"lon":114.928,"pop":913000},{"name":"Ganzhou","country":"China","lat":25.92,"lon":114.95,"pop":1500000},{"name":"Jiujiang","country":"China","lat":29.73,"lon":115.98,"pop":545616},{"name":"Changzhou","country":"China","lat":31.7819,"lon":119.968,"pop":1327000},{"name":"Zhenjiang","country":"China","lat":32.1757,"lon":119.4305,"pop":854000},{"name":"Nantong","country":"China","lat":31.9823,"lon":120.9246,"pop":947000},{"name":"Jiaxing","country":"China","lat":30.7724,"lon":120.748,"pop":988000},{"name":"Huzhou","country":"China","lat":30.8723,"lon":120.0981,"pop":1231000},{"name":"Shaoxing","country":"China","lat":30.0023,"lon":120.5681,"pop":777000},{"name":"Jinhua","country":"China","lat":29.12,"lon":119.65,"pop":1092852},{"name":"Liaoyuan","country":"China","lat":42.9,"lon":125.13,"pop":506548},{"name":"Siping","country":"China","lat":43.17,"lon":124.33,"pop":555609},{"name":"Baicheng","country":"China","lat":45.62,"lon":122.82,"pop":386861},{"name":"Kagoshima","country":"Japan","lat":31.586,"lon":130.5611,"pop":555352},{"name":"Matsuyama","country":"Japan","lat":33.8455,"lon":132.7658,"pop":533541},{"name":"Qitaihe","country":"China","lat":45.7679,"lon":131.0091,"pop":450617},{"name":"Yichun","country":"China","lat":47.7019,"lon":128.898,"pop":777000},{"name":"Hegang","country":"China","lat":47.3466,"lon":130.2967,"pop":743307},{"name":"Mudangiang","country":"China","lat":44.577,"lon":129.5881,"pop":1244000},{"name":"Kanazawa","country":"Japan","lat":36.56,"lon":136.64,"pop":551249},{"name":"Asahikawa","country":"Japan","lat":43.755,"lon":142.38,"pop":356612},{"name":"Kōbe","country":"Japan","lat":34.68,"lon":135.17,"pop":1528478},{"name":"Yokohama","country":"Japan","lat":35.4307,"lon":139.602,"pop":3697894},{"name":"Akita","country":"Japan","lat":39.71,"lon":140.09,"pop":320069},{"name":"Niigata","country":"Japan","lat":37.92,"lon":139.04,"pop":569797},{"name":"Warangal","country":"India","lat":18.01,"lon":79.58,"pop":1203853},{"name":"Brahmapur","country":"India","lat":19.32,"lon":84.8,"pop":324726},{"name":"Bhiwandi","country":"India","lat":19.352,"lon":73.1281,"pop":795000},{"name":"Latur","country":"India","lat":18.4004,"lon":76.57,"pop":374394},{"name":"Ahmednagar","country":"India","lat":19.082,"lon":74.7458,"pop":391760},{"name":"Chandrapur","country":"India","lat":19.97,"lon":79.3,"pop":595118},{"name":"Amravati","country":"India","lat":20.9256,"lon":77.7818,"pop":734451},{"name":"Dhule","country":"India","lat":20.9,"lon":74.77,"pop":479073},{"name":"Nice","country":"France","lat":43.717,"lon":7.2631,"pop":927000},{"name":"Toulouse","country":"France","lat":43.6219,"lon":1.448,"pop":847000},{"name":"Lille","country":"France","lat":50.6519,"lon":3.0781,"pop":1044000},{"name":"Strasbourg","country":"France","lat":48.58,"lon":7.75,"pop":439972},{"name":"Irbil","country":"Iraq","lat":36.181,"lon":44.0067,"pop":926000},{"name":"Kerman","country":"Iran","lat":30.3,"lon":57.08,"pop":577514},{"name":"Udaipur","country":"India","lat":24.6,"lon":73.73,"pop":469737},{"name":"Gorakhpur","country":"India","lat":26.7504,"lon":83.38,"pop":674246},{"name":"Barddhaman","country":"India","lat":23.2504,"lon":87.865,"pop":301725},{"name":"Gaya","country":"India","lat":24.8,"lon":85,"pop":423692},{"name":"Bakersfield","country":"United States of America","lat":35.37,"lon":-119.02,"pop":443129},{"name":"Oakland","country":"United States of America","lat":37.8047,"lon":-122.278,"pop":1510271},{"name":"West Palm Beach","country":"United States of America","lat":26.745,"lon":-80.1236,"pop":1250000},{"name":"Sarasota","country":"United States of America","lat":27.3361,"lon":-82.5308,"pop":589959},{"name":"Charleston","country":"United States of America","lat":32.7924,"lon":-79.9921,"pop":411940},{"name":"Louisville","country":"United States of America","lat":38.227,"lon":-85.7506,"pop":948000},{"name":"Charlotte","country":"United States of America","lat":35.2069,"lon":-80.832,"pop":995000},{"name":"Youngstown","country":"United States of America","lat":41.0997,"lon":-80.6497,"pop":311990},{"name":"Toledo","country":"United States of America","lat":41.6398,"lon":-83.553,"pop":469924},{"name":"Columbus","country":"United States of America","lat":39.9819,"lon":-82.992,"pop":1270000},{"name":"Albany","country":"United States of America","lat":42.6537,"lon":-73.7576,"pop":870716},{"name":"Harrisburg","country":"United States of America","lat":40.2736,"lon":-76.8847,"pop":528892},{"name":"Ciudad Bolívar","country":"Venezuela","lat":8.1,"lon":-63.6,"pop":338000},{"name":"Maracay","country":"Venezuela","lat":10.2488,"lon":-67.5978,"pop":1007000},{"name":"Sfax","country":"Tunisia","lat":34.75,"lon":10.72,"pop":453050},{"name":"Al Hudaydah","country":"Yemen","lat":14.7999,"lon":42.951,"pop":780000},{"name":"Mariupol","country":"Ukraine","lat":47.0962,"lon":37.5562,"pop":481626},{"name":"Nha Trang","country":"Vietnam","lat":12.25,"lon":109.17,"pop":411556},{"name":"Qui Nhon","country":"Vietnam","lat":13.78,"lon":109.18,"pop":805290},{"name":"Hue","country":"Vietnam","lat":16.47,"lon":107.58,"pop":950000},{"name":"Biên Hòa","country":"Vietnam","lat":10.97,"lon":106.8301,"pop":652646},{"name":"Can Tho","country":"Vietnam","lat":10.05,"lon":105.77,"pop":1121000},{"name":"Ndola","country":"Zambia","lat":-12.9999,"lon":28.65,"pop":396339},{"name":"Juiz de Fora","country":"Brazil","lat":-21.77,"lon":-43.375,"pop":470193},{"name":"Joinville","country":"Brazil","lat":-26.318,"lon":-48.8419,"pop":988000},{"name":"Vitória","country":"Brazil","lat":-20.332,"lon":-40.3539,"pop":1704000},{"name":"João Pessoa","country":"Brazil","lat":-7.0992,"lon":-34.878,"pop":956000},{"name":"Campina Grande","country":"Brazil","lat":-7.23,"lon":-35.88,"pop":417261},{"name":"Hamilton","country":"Canada","lat":43.25,"lon":-79.83,"pop":721053},{"name":"Windsor","country":"Canada","lat":42.3155,"lon":-83.0369,"pop":319246},{"name":"Cochabamba","country":"Bolivia","lat":-17.41,"lon":-66.17,"pop":1000000},{"name":"San Luis","country":"Argentina","lat":-33.3,"lon":-66.35,"pop":432310},{"name":"San Salvador de Jujuy","country":"Argentina","lat":-24.1833,"lon":-65.3,"pop":305891},{"name":"Antwerpen","country":"Belgium","lat":51.2223,"lon":4.4131,"pop":920000},{"name":"Eskişehir","country":"Turkey","lat":39.795,"lon":30.53,"pop":514869},{"name":"Antalya","country":"Turkey","lat":36.8919,"lon":30.698,"pop":783000},{"name":"Kayseri","country":"Turkey","lat":38.735,"lon":35.49,"pop":592840},{"name":"Homyel","country":"Belarus","lat":52.43,"lon":31,"pop":480951},{"name":"Gaziantep","country":"Turkey","lat":37.0769,"lon":37.383,"pop":1044000},{"name":"Valladolid","country":"Spain","lat":41.65,"lon":-4.75,"pop":322304},{"name":"Homs","country":"Syria","lat":34.7319,"lon":36.7181,"pop":1005000},{"name":"Cluj-Napoca","country":"Romania","lat":46.7884,"lon":23.5984,"pop":316748},{"name":"Hat Yai","country":"Thailand","lat":6.9964,"lon":100.4714,"pop":317954},{"name":"Palma","country":"Spain","lat":39.5743,"lon":2.6542,"pop":375773},{"name":"Medani","country":"Sudan","lat":14.4,"lon":33.52,"pop":332714},{"name":"Kosti","country":"Sudan","lat":13.17,"lon":32.66,"pop":345068},{"name":"Pietermaritzburg","country":"South Africa","lat":-29.61,"lon":30.39,"pop":750845},{"name":"Tangier","country":"Morocco","lat":35.7759,"lon":-5.8062,"pop":750060},{"name":"Agadir","country":"Morocco","lat":30.44,"lon":-9.62,"pop":825467},{"name":"Ivanovo","country":"Russia","lat":57.01,"lon":41.01,"pop":420839},{"name":"Lipetsk","country":"Russia","lat":52.62,"lon":39.64,"pop":515655},{"name":"Orel","country":"Russia","lat":52.97,"lon":36.07,"pop":334552},{"name":"Belgorod","country":"Russia","lat":50.63,"lon":36.5999,"pop":345289},{"name":"Vladimir","country":"Russia","lat":56.13,"lon":40.4099,"pop":318648},{"name":"Izhevsk","country":"Russia","lat":56.85,"lon":53.23,"pop":631038},{"name":"Bacolod","country":"Philippines","lat":10.6317,"lon":122.9817,"pop":949354},{"name":"Naga","country":"Philippines","lat":13.6192,"lon":123.1814,"pop":741635},{"name":"Angeles","country":"Philippines","lat":15.1451,"lon":120.5451,"pop":314493},{"name":"Batangas","country":"Philippines","lat":13.7817,"lon":121.0217,"pop":424508},{"name":"Cagayan de Oro","country":"Philippines","lat":8.4508,"lon":124.6853,"pop":1121561},{"name":"Ilorin","country":"Nigeria","lat":8.492,"lon":4.548,"pop":771000},{"name":"Zaria","country":"Nigeria","lat":11.0819,"lon":7.7081,"pop":889000},{"name":"Jos","country":"Nigeria","lat":9.93,"lon":8.89,"pop":816824},{"name":"Łódź","country":"Poland","lat":51.7678,"lon":19.4582,"pop":758000},{"name":"Zaragoza","country":"Spain","lat":41.65,"lon":-0.89,"pop":649404},{"name":"Göteborg","country":"Sweden","lat":57.7091,"lon":11.9786,"pop":537797},{"name":"Pematangsiantar","country":"Indonesia","lat":2.9614,"lon":99.0615,"pop":341200},{"name":"Pekanbaru","country":"Indonesia","lat":0.5669,"lon":101.4231,"pop":799000},{"name":"Manado","country":"Indonesia","lat":1.48,"lon":124.85,"pop":451893},{"name":"Yogyakarta","country":"Indonesia","lat":-7.78,"lon":110.375,"pop":636660},{"name":"Palu","country":"Indonesia","lat":-0.907,"lon":119.833,"pop":612445},{"name":"Genoa","country":"Italy","lat":44.41,"lon":8.93,"pop":647497},{"name":"Nakuru","country":"Kenya","lat":-0.28,"lon":36.07,"pop":364727},{"name":"Ipoh","country":"Malaysia","lat":4.6,"lon":101.065,"pop":673318},{"name":"Kota Baharu","country":"Malaysia","lat":6.12,"lon":102.23,"pop":505583},{"name":"Malacca","country":"Malaysia","lat":2.2064,"lon":102.2465,"pop":788706},{"name":"Kuantan","country":"Malaysia","lat":3.83,"lon":103.32,"pop":366229},{"name":"Xuanzhou","country":"China","lat":30.9544,"lon":118.7533,"pop":866000},{"name":"Zhuhai","country":"China","lat":22.2789,"lon":113.5658,"pop":1023000},{"name":"Samarinda","country":"Indonesia","lat":-0.5,"lon":117.15,"pop":592228},{"name":"Tawau","country":"Malaysia","lat":4.271,"lon":117.896,"pop":306462},{"name":"Sandakan","country":"Malaysia","lat":5.843,"lon":118.108,"pop":392288},{"name":"Kota Kinabalu","country":"Malaysia","lat":5.98,"lon":116.11,"pop":527671},{"name":"Kisumu","country":"Kenya","lat":-0.09,"lon":34.75,"pop":395615},{"name":"Antsirabe","country":"Madagascar","lat":-19.85,"lon":47.0333,"pop":307921},{"name":"Bogor","country":"Indonesia","lat":-6.5681,"lon":106.7481,"pop":918000},{"name":"Bengkulu","country":"Indonesia","lat":-3.8,"lon":102.27,"pop":426673},{"name":"Pontianak","country":"Indonesia","lat":-0.03,"lon":109.32,"pop":607311},{"name":"El Minya","country":"Egypt","lat":28.09,"lon":30.75,"pop":500000},{"name":"Kom Ombo","country":"Egypt","lat":24.47,"lon":32.95,"pop":303962},{"name":"Cologne","country":"Germany","lat":50.932,"lon":6.9481,"pop":1004000},{"name":"Xianyang","country":"China","lat":34.3475,"lon":108.7128,"pop":1126000},{"name":"Xiangyang","country":"China","lat":32.0219,"lon":112.1281,"pop":1069000},{"name":"Suining","country":"China","lat":30.5353,"lon":105.5314,"pop":1425000},{"name":"Lingyuan","country":"China","lat":41.2419,"lon":119.3992,"pop":806000},{"name":"Weihai","country":"China","lat":37.5,"lon":122.1,"pop":560255},{"name":"Yichun","country":"China","lat":27.8353,"lon":114.3981,"pop":982000},{"name":"Yancheng","country":"China","lat":33.3379,"lon":120.1675,"pop":839000},{"name":"Fuyang","country":"China","lat":30.0553,"lon":119.95,"pop":771000},{"name":"Bukavu","country":"Congo (Kinshasa)","lat":-2.51,"lon":28.84,"pop":436779},{"name":"Likasi","country":"Congo (Kinshasa)","lat":-10.97,"lon":26.78,"pop":434408},{"name":"Jambi","country":"Indonesia","lat":-1.59,"lon":103.61,"pop":457090},{"name":"Kumasi","country":"Ghana","lat":6.6919,"lon":-1.632,"pop":1646000},{"name":"Nellore","country":"India","lat":14.44,"lon":79.9899,"pop":678004},{"name":"Kurnool","country":"India","lat":15.83,"lon":78.03,"pop":424920},{"name":"Guntur","country":"India","lat":16.33,"lon":80.45,"pop":530577},{"name":"Tumakuru","country":"India","lat":13.33,"lon":77.1,"pop":399606},{"name":"Davangere","country":"India","lat":14.47,"lon":75.92,"pop":503564},{"name":"Ballari","country":"India","lat":15.15,"lon":76.915,"pop":445388},{"name":"Belagavi","country":"India","lat":15.865,"lon":74.505,"pop":608756},{"name":"Ṭarābulus","country":"Lebanon","lat":34.4383,"lon":35.8317,"pop":530000},{"name":"Nazret","country":"Ethiopia","lat":8.55,"lon":39.27,"pop":476892},{"name":"Abadan","country":"Iran","lat":30.3307,"lon":48.2797,"pop":370180},{"name":"Ardabil","country":"Iran","lat":38.25,"lon":48.3,"pop":414603},{"name":"Qom","country":"Iran","lat":34.652,"lon":50.9481,"pop":973000},{"name":"Qazvin","country":"Iran","lat":36.27,"lon":50,"pop":464551},{"name":"Kermanshah","country":"Iran","lat":34.382,"lon":47.0581,"pop":828313},{"name":"Rasht","country":"Iran","lat":37.3,"lon":49.63,"pop":594590},{"name":"Birjand","country":"Iran","lat":32.88,"lon":59.2199,"pop":324703},{"name":"Zahedan","country":"Iran","lat":29.5,"lon":60.83,"pop":598887},{"name":"Tuticorin","country":"India","lat":8.7978,"lon":78.1318,"pop":436094},{"name":"Natal","country":"Brazil","lat":-6.9838,"lon":-60.2699,"pop":980588},{"name":"Londrina","country":"Brazil","lat":-23.3,"lon":-51.18,"pop":520238},{"name":"Campos","country":"Brazil","lat":-21.75,"lon":-41.32,"pop":387417},{"name":"Aracaju","country":"Brazil","lat":-10.9,"lon":-37.12,"pop":685356},{"name":"Vila Velha","country":"Brazil","lat":3.2167,"lon":-51.2167,"pop":1209091},{"name":"Santiago del Estero","country":"Argentina","lat":-27.7833,"lon":-64.2667,"pop":354692},{"name":"Resistencia","country":"Argentina","lat":-27.46,"lon":-58.99,"pop":387158},{"name":"Santos","country":"Brazil","lat":-23.9618,"lon":-46.3285,"pop":1709000},{"name":"Bauru","country":"Brazil","lat":-22.33,"lon":-49.08,"pop":335024},{"name":"Franca","country":"Brazil","lat":-20.53,"lon":-47.39,"pop":305041},{"name":"Arak","country":"Algeria","lat":25.28,"lon":3.75,"pop":423251},{"name":"Vitsyebsk","country":"Belarus","lat":55.1887,"lon":30.1853,"pop":342700},{"name":"Macau","country":"Macau S.A.R","lat":22.1891,"lon":113.5444,"pop":568700},{"name":"Santa Cruz de Tenerife","country":"Spain","lat":28.47,"lon":-16.25,"pop":336061},{"name":"Hualien","country":"Taiwan","lat":23.9837,"lon":121.6,"pop":350468},{"name":"New Taipei","country":"Taiwan","lat":25.0128,"lon":121.465,"pop":3893740},{"name":"Tainan","country":"Taiwan","lat":23,"lon":120.2,"pop":1876312},{"name":"San Bernardino","country":"United States of America","lat":34.1223,"lon":-117.302,"pop":1745000},{"name":"Bridgeport","country":"United States of America","lat":41.1819,"lon":-73.2019,"pop":1018000},{"name":"Rochester","country":"United States of America","lat":43.1724,"lon":-77.6219,"pop":755000},{"name":"Manchester","country":"United Kingdom","lat":53.4753,"lon":-2.2487,"pop":2230000},{"name":"Gujranwala","country":"Pakistan","lat":32.1624,"lon":74.1831,"pop":1513000},{"name":"Incheon","country":"South Korea","lat":37.4781,"lon":126.6403,"pop":2550000},{"name":"Benin City","country":"Nigeria","lat":6.3424,"lon":5.6181,"pop":1190000},{"name":"Xiamen","country":"China","lat":24.4519,"lon":118.0781,"pop":2519000},{"name":"Nanchong","country":"China","lat":30.7824,"lon":106.1281,"pop":2174000},{"name":"Neijiang","country":"China","lat":29.5823,"lon":105.0481,"pop":1466000},{"name":"Nanyang","country":"China","lat":33.0023,"lon":112.5281,"pop":1944000},{"name":"Jinxi","country":"China","lat":40.7523,"lon":120.828,"pop":2426000},{"name":"Yantai","country":"China","lat":37.5324,"lon":121.3981,"pop":2116000},{"name":"Zaozhuang","country":"China","lat":34.8819,"lon":117.5681,"pop":2145000},{"name":"Suzhou","country":"China","lat":31.3024,"lon":120.6181,"pop":1650000},{"name":"Xuzhou","country":"China","lat":34.282,"lon":117.1781,"pop":2091000},{"name":"Wuxi","country":"China","lat":31.5819,"lon":120.298,"pop":1749000},{"name":"Jilin","country":"China","lat":43.8519,"lon":126.5481,"pop":2396000},{"name":"Chandigarh","country":"India","lat":30.7219,"lon":76.7781,"pop":979000},{"name":"Jammu","country":"India","lat":32.7137,"lon":74.8448,"pop":791000},{"name":"Sholapur","country":"India","lat":17.6724,"lon":75.8981,"pop":1057000},{"name":"Aurangabad","country":"India","lat":19.8617,"lon":75.3289,"pop":1113000},{"name":"Nasik","country":"India","lat":20.0024,"lon":73.778,"pop":1473000},{"name":"Jullundur","country":"India","lat":31.3369,"lon":75.5671,"pop":855000},{"name":"Allahabad","country":"India","lat":25.4569,"lon":81.8381,"pop":1201000},{"name":"Moradabad","country":"India","lat":28.8437,"lon":78.7548,"pop":787000},{"name":"Ghaziabad","country":"India","lat":28.6623,"lon":77.4064,"pop":1341000},{"name":"Agra","country":"India","lat":27.1724,"lon":78.0131,"pop":1592000},{"name":"Aligarh","country":"India","lat":27.8942,"lon":78.0598,"pop":805000},{"name":"Meerut","country":"India","lat":29.0024,"lon":77.6981,"pop":1398000},{"name":"Dhanbad","country":"India","lat":23.8023,"lon":86.418,"pop":1246000},{"name":"Gwalior","country":"India","lat":26.2,"lon":78.1692,"pop":978000},{"name":"Vadodara","country":"India","lat":22.312,"lon":73.1781,"pop":1756000},{"name":"Rajkot","country":"India","lat":22.312,"lon":70.7981,"pop":1260000},{"name":"St.  Paul","country":"United States of America","lat":44.944,"lon":-93.085,"pop":734854},{"name":"Spokane","country":"United States of America","lat":47.67,"lon":-117.4199,"pop":347705},{"name":"Vancouver","country":"United States of America","lat":45.6303,"lon":-122.64,"pop":525802},{"name":"Tucson","country":"United States of America","lat":32.2069,"lon":-110.8919,"pop":823000},{"name":"Fresno","country":"United States of America","lat":36.7477,"lon":-119.773,"pop":616353},{"name":"Colorado Springs","country":"United States of America","lat":38.863,"lon":-104.792,"pop":493654},{"name":"Reno","country":"United States of America","lat":39.53,"lon":-119.82,"pop":328585},{"name":"Albuquerque","country":"United States of America","lat":35.105,"lon":-106.6413,"pop":898642},{"name":"Kansas City","country":"United States of America","lat":39.109,"lon":-94.606,"pop":1469000},{"name":"Tulsa","country":"United States of America","lat":36.12,"lon":-95.93,"pop":946962},{"name":"Baton Rouge","country":"United States of America","lat":30.4579,"lon":-91.1402,"pop":422072},{"name":"Ft.  Worth","country":"United States of America","lat":32.74,"lon":-97.34,"pop":1440454},{"name":"Austin","country":"United States of America","lat":30.2689,"lon":-97.7447,"pop":1161000},{"name":"El Paso","country":"United States of America","lat":31.7819,"lon":-106.5119,"pop":753000},{"name":"Laredo","country":"United States of America","lat":27.5061,"lon":-99.5072,"pop":434768},{"name":"Mérida","country":"Venezuela","lat":8.5695,"lon":-71.1825,"pop":345489},{"name":"Orlando","country":"United States of America","lat":28.5119,"lon":-81.382,"pop":1350000},{"name":"Jacksonville","country":"United States of America","lat":30.332,"lon":-81.6719,"pop":988000},{"name":"Columbia","country":"United States of America","lat":33.9969,"lon":-81.0313,"pop":398093},{"name":"Indianapolis","country":"United States of America","lat":39.7519,"lon":-86.172,"pop":1436000},{"name":"Knoxville","country":"United States of America","lat":35.97,"lon":-83.92,"pop":655400},{"name":"Richmond","country":"United States of America","lat":37.552,"lon":-77.4519,"pop":912000},{"name":"Baltimore","country":"United States of America","lat":39.2815,"lon":-76.6146,"pop":2255000},{"name":"Syracuse","country":"United States of America","lat":43.05,"lon":-76.15,"pop":662577},{"name":"Sousse","country":"Tunisia","lat":35.83,"lon":10.625,"pop":327004},{"name":"Taizz","country":"Yemen","lat":13.6064,"lon":44.0375,"pop":751000},{"name":"Lviv","country":"Ukraine","lat":49.835,"lon":24.03,"pop":803880},{"name":"Odessa","country":"Ukraine","lat":46.492,"lon":30.7081,"pop":991000},{"name":"Dnipro","country":"Ukraine","lat":48.4819,"lon":34.9981,"pop":1050000},{"name":"Donetsk","country":"Ukraine","lat":48.0019,"lon":37.828,"pop":988000},{"name":"Kharkiv","country":"Ukraine","lat":50.0019,"lon":36.2481,"pop":1461000},{"name":"Bukhara","country":"Uzbekistan","lat":39.78,"lon":64.43,"pop":319476},{"name":"Andijan","country":"Uzbekistan","lat":40.79,"lon":72.34,"pop":650000},{"name":"Haiphong","country":"Vietnam","lat":20.832,"lon":106.6781,"pop":1969000},{"name":"Da Nang","country":"Vietnam","lat":16.06,"lon":108.25,"pop":1000000},{"name":"Kitwe","country":"Zambia","lat":-12.81,"lon":28.22,"pop":404901},{"name":"Chitungwiza","country":"Zimbabwe","lat":-18,"lon":31.1,"pop":340360},{"name":"Douala","country":"Cameroon","lat":4.0624,"lon":9.708,"pop":1906000},{"name":"Birmingham","country":"United Kingdom","lat":52.4769,"lon":-1.9219,"pop":2285000},{"name":"Belfast","country":"United Kingdom","lat":54.5942,"lon":-5.9282,"pop":450406},{"name":"İzmir","country":"Turkey","lat":38.4381,"lon":27.1498,"pop":2587000},{"name":"Bursa","country":"Turkey","lat":40.2019,"lon":29.0681,"pop":1492000},{"name":"Samsun","country":"Turkey","lat":41.28,"lon":36.3437,"pop":609339},{"name":"Konya","country":"Turkey","lat":37.877,"lon":32.4731,"pop":919000},{"name":"Adana","country":"Turkey","lat":36.9969,"lon":35.3181,"pop":1293000},{"name":"Kigali","country":"Rwanda","lat":-1.9516,"lon":30.0586,"pop":860000},{"name":"Córdoba","country":"Spain","lat":37.88,"lon":-4.77,"pop":321376},{"name":"Constanța","country":"Romania","lat":44.2027,"lon":28.61,"pop":303399},{"name":"Iași","country":"Romania","lat":47.1683,"lon":27.5749,"pop":325914},{"name":"Chiang Mai","country":"Thailand","lat":18.8,"lon":98.98,"pop":397211},{"name":"Nakhon Ratchasima","country":"Thailand","lat":15,"lon":102.1,"pop":334984},{"name":"Piura","country":"Peru","lat":-5.21,"lon":-80.63,"pop":396932},{"name":"Arequipa","country":"Peru","lat":-16.418,"lon":-71.532,"pop":815000},{"name":"Chimbote","country":"Peru","lat":-9.07,"lon":-78.57,"pop":349846},{"name":"Pucallpa","country":"Peru","lat":-8.3689,"lon":-74.535,"pop":310750},{"name":"Iquitos","country":"Peru","lat":-3.75,"lon":-73.25,"pop":458729},{"name":"Huancayo","country":"Peru","lat":-12.08,"lon":-75.2,"pop":412733},{"name":"Ciudad del Este","country":"Paraguay","lat":-25.5167,"lon":-54.6161,"pop":320872},{"name":"Vigo","country":"Spain","lat":42.22,"lon":-8.73,"pop":378952},{"name":"Bilbao","country":"Spain","lat":43.25,"lon":-2.93,"pop":875552},{"name":"Medina","country":"Saudi Arabia","lat":24.5019,"lon":39.5781,"pop":1010000},{"name":"Tabuk","country":"Saudi Arabia","lat":28.3838,"lon":36.555,"pop":547957},{"name":"Omdurman","country":"Sudan","lat":15.6167,"lon":32.48,"pop":2395159},{"name":"Al-Ubayyid","country":"Sudan","lat":13.1833,"lon":30.2167,"pop":393311},{"name":"The Hague","country":"Netherlands","lat":52.08,"lon":4.27,"pop":1406000},{"name":"Ljubljana","country":"Slovenia","lat":46.0553,"lon":14.515,"pop":314807},{"name":"Bratislava","country":"Slovakia","lat":48.15,"lon":17.117,"pop":423737},{"name":"Doha","country":"Qatar","lat":25.2866,"lon":51.533,"pop":1450000},{"name":"Quetta","country":"Pakistan","lat":30.2219,"lon":67.023,"pop":768000},{"name":"Larkana","country":"Pakistan","lat":27.5618,"lon":68.2068,"pop":364033},{"name":"Nampula","country":"Mozambique","lat":-15.136,"lon":39.293,"pop":388526},{"name":"Welkom","country":"South Africa","lat":-27.97,"lon":26.73,"pop":431944},{"name":"Oujda","country":"Morocco","lat":34.69,"lon":-1.91,"pop":409391},{"name":"Safi","country":"Morocco","lat":32.32,"lon":-9.24,"pop":353476},{"name":"East London","country":"South Africa","lat":-32.97,"lon":27.87,"pop":338627},{"name":"Nalchik","country":"Russia","lat":43.4981,"lon":43.6179,"pop":307866},{"name":"Stavropol","country":"Russia","lat":45.05,"lon":41.98,"pop":363064},{"name":"Kaliningrad","country":"Russia","lat":54.7,"lon":20.4973,"pop":434954},{"name":"Bryansk","country":"Russia","lat":53.26,"lon":34.43,"pop":427236},{"name":"Smolensk","country":"Russia","lat":54.7827,"lon":32.0473,"pop":320991},{"name":"Tver","country":"Russia","lat":56.86,"lon":35.89,"pop":400212},{"name":"Yaroslavl","country":"Russia","lat":57.62,"lon":39.87,"pop":606730},{"name":"Rostov","country":"Russia","lat":47.2366,"lon":39.7107,"pop":1052000},{"name":"Sochi","country":"Russia","lat":43.59,"lon":39.73,"pop":327608},{"name":"Krasnodar","country":"Russia","lat":45.02,"lon":39,"pop":649851},{"name":"Penza","country":"Russia","lat":53.18,"lon":45,"pop":512602},{"name":"Ryazan","country":"Russia","lat":54.62,"lon":39.72,"pop":520173},{"name":"Voronezh","country":"Russia","lat":51.6654,"lon":39.1868,"pop":844000},{"name":"Magnitogorsk","country":"Russia","lat":53.4227,"lon":58.98,"pop":413351},{"name":"Chelyabinsk","country":"Russia","lat":55.1569,"lon":61.4367,"pop":1091000},{"name":"Kirov","country":"Russia","lat":58.5901,"lon":49.67,"pop":457437},{"name":"Nizhny Tagil","country":"Russia","lat":57.92,"lon":59.975,"pop":381116},{"name":"Astrakhan","country":"Russia","lat":46.3487,"lon":48.055,"pop":502533},{"name":"Orenburg","country":"Russia","lat":51.78,"lon":55.11,"pop":550204},{"name":"Saratov","country":"Russia","lat":51.5819,"lon":46.0281,"pop":843000},{"name":"Ulyanovsk","country":"Russia","lat":54.33,"lon":48.41,"pop":640680},{"name":"Omsk","country":"Russia","lat":54.9919,"lon":73.398,"pop":1135000},{"name":"Tyumen","country":"Russia","lat":57.14,"lon":65.53,"pop":519119},{"name":"Novokuznetsk","country":"Russia","lat":53.75,"lon":87.115,"pop":539616},{"name":"Kemerovo","country":"Russia","lat":55.34,"lon":86.09,"pop":477090},{"name":"Daejeon","country":"South Korea","lat":36.3375,"lon":127.4231,"pop":1468000},{"name":"Gwangju","country":"South Korea","lat":35.1729,"lon":126.9085,"pop":1440000},{"name":"Busan","country":"South Korea","lat":35.097,"lon":129.0081,"pop":3480000},{"name":"Zamboanga","country":"Philippines","lat":6.9219,"lon":122.0781,"pop":773000},{"name":"Baguio","country":"Philippines","lat":16.43,"lon":120.5699,"pop":447824},{"name":"General Santos","country":"Philippines","lat":6.1108,"lon":125.1747,"pop":950530},{"name":"Ulan-Ude","country":"Russia","lat":51.825,"lon":107.625,"pop":360278},{"name":"Khabarovsk","country":"Russia","lat":48.455,"lon":135.12,"pop":579000},{"name":"Mexicali","country":"Mexico","lat":32.6519,"lon":-115.482,"pop":885000},{"name":"Torreón","country":"Mexico","lat":25.572,"lon":-103.4219,"pop":1144000},{"name":"Culiacán","country":"Mexico","lat":24.8319,"lon":-107.3819,"pop":809000},{"name":"Hermosillo","country":"Mexico","lat":29.0989,"lon":-110.9541,"pop":595811},{"name":"San Luis Potosí","country":"Mexico","lat":22.1719,"lon":-101.0019,"pop":992000},{"name":"Matamoros","country":"Mexico","lat":25.88,"lon":-97.5,"pop":538785},{"name":"Nuevo Laredo","country":"Mexico","lat":27.5,"lon":-99.55,"pop":349550},{"name":"Oaxaca","country":"Mexico","lat":17.0827,"lon":-96.67,"pop":530728},{"name":"León","country":"Mexico","lat":21.1519,"lon":-101.702,"pop":1488000},{"name":"Maiduguri","country":"Nigeria","lat":11.8519,"lon":13.1581,"pop":896000},{"name":"Port Harcourt","country":"Nigeria","lat":4.8119,"lon":7.0081,"pop":1020000},{"name":"Ibadan","country":"Nigeria","lat":7.382,"lon":3.928,"pop":2628000},{"name":"Ogbomosho","country":"Nigeria","lat":8.132,"lon":4.238,"pop":951000},{"name":"Warri","country":"Nigeria","lat":5.52,"lon":5.76,"pop":830106},{"name":"Kaduna","country":"Nigeria","lat":10.522,"lon":7.4381,"pop":1442000},{"name":"Gdańsk","country":"Poland","lat":54.36,"lon":18.64,"pop":740000},{"name":"Kraków","country":"Poland","lat":50.0619,"lon":19.9581,"pop":756000},{"name":"Wonsan","country":"North Korea","lat":39.1605,"lon":127.4308,"pop":329207},{"name":"Mwanza","country":"Tanzania","lat":-2.52,"lon":32.93,"pop":493944},{"name":"Arusha","country":"Tanzania","lat":-3.36,"lon":36.67,"pop":341136},{"name":"Ambon","country":"Indonesia","lat":-3.7167,"lon":128.2,"pop":355596},{"name":"Florence","country":"Italy","lat":43.78,"lon":11.25,"pop":1500000},{"name":"Catania","country":"Italy","lat":37.5,"lon":15.08,"pop":674542},{"name":"Pristina","country":"Kosovo","lat":42.6667,"lon":21.166,"pop":465186},{"name":"Eldoret","country":"Kenya","lat":0.52,"lon":35.27,"pop":353381},{"name":"Banda Aceh","country":"Indonesia","lat":5.55,"lon":95.32,"pop":513698},{"name":"George Town","country":"Malaysia","lat":5.4136,"lon":100.3294,"pop":2500000},{"name":"Wuwei","country":"China","lat":37.928,"lon":102.641,"pop":493092},{"name":"Tianshui","country":"China","lat":34.602,"lon":105.918,"pop":1225000},{"name":"Yulin","country":"China","lat":22.6319,"lon":110.1481,"pop":1127000},{"name":"Wuzhou","country":"China","lat":23.48,"lon":111.32,"pop":442315},{"name":"Liupanshui","country":"China","lat":26.5964,"lon":104.8314,"pop":1221000},{"name":"Quanzhou","country":"China","lat":24.902,"lon":118.578,"pop":1463000},{"name":"Hefei","country":"China","lat":31.852,"lon":117.2781,"pop":2035000},{"name":"Suzhou","country":"China","lat":33.6381,"lon":116.9769,"pop":1964000},{"name":"Zhanjiang","country":"China","lat":21.2019,"lon":110.3781,"pop":1590000},{"name":"Shaoguan","country":"China","lat":24.8,"lon":113.58,"pop":720266},{"name":"Balikpapan","country":"Indonesia","lat":-1.25,"lon":116.83,"pop":445905},{"name":"Kuching","country":"Malaysia","lat":1.53,"lon":110.33,"pop":570407},{"name":"Surakarta","country":"Indonesia","lat":-7.565,"lon":110.825,"pop":555308},{"name":"Bandar Lampung","country":"Indonesia","lat":-5.4281,"lon":105.2681,"pop":865000},{"name":"Malang","country":"Indonesia","lat":-7.978,"lon":112.6081,"pop":805000},{"name":"Santiago de Cuba","country":"Cuba","lat":20.025,"lon":-75.8213,"pop":555865},{"name":"Santiago","country":"Dominican Republic","lat":19.5,"lon":-70.67,"pop":1550753},{"name":"Manizales","country":"Colombia","lat":5.06,"lon":-75.52,"pop":375848},{"name":"Pasto","country":"Colombia","lat":1.2136,"lon":-77.2811,"pop":382236},{"name":"Barranquilla","country":"Colombia","lat":10.9619,"lon":-74.8019,"pop":1798000},{"name":"Suez","country":"Egypt","lat":30.005,"lon":32.5499,"pop":508335},{"name":"Bur Said","country":"Egypt","lat":31.26,"lon":32.29,"pop":623864},{"name":"El Faiyum","country":"Egypt","lat":29.31,"lon":30.84,"pop":316772},{"name":"Aswan","country":"Egypt","lat":24.0875,"lon":32.8989,"pop":313442},{"name":"Asyut","country":"Egypt","lat":27.19,"lon":31.1799,"pop":420585},{"name":"Kisangani","country":"Congo (Kinshasa)","lat":0.52,"lon":25.22,"pop":578470},{"name":"Djibouti","country":"Djibouti","lat":11.595,"lon":43.148,"pop":923000},{"name":"Dresden","country":"Germany","lat":51.05,"lon":13.75,"pop":617515},{"name":"Shache","country":"China","lat":38.4261,"lon":77.25,"pop":851374},{"name":"Yining","country":"China","lat":43.9,"lon":81.35,"pop":542507},{"name":"Ankang","country":"China","lat":32.68,"lon":109.02,"pop":1100000},{"name":"Yueyang","country":"China","lat":29.382,"lon":113.0981,"pop":826000},{"name":"Hengyang","country":"China","lat":26.882,"lon":112.5881,"pop":1016000},{"name":"Mianyang","country":"China","lat":31.4648,"lon":104.69,"pop":1396000},{"name":"Xichang","country":"China","lat":27.88,"lon":102.3,"pop":379993},{"name":"Baoshan","country":"China","lat":25.12,"lon":99.15,"pop":1000000},{"name":"Shijiazhuang","country":"China","lat":38.052,"lon":114.478,"pop":2417000},{"name":"Handan","country":"China","lat":36.5819,"lon":114.478,"pop":1631000},{"name":"Anshan","country":"China","lat":41.117,"lon":122.9381,"pop":1639000},{"name":"Dalian","country":"China","lat":38.9248,"lon":121.6279,"pop":3167000},{"name":"Qingdao","country":"China","lat":36.0919,"lon":120.3281,"pop":2866000},{"name":"Linyi","country":"China","lat":35.0819,"lon":118.328,"pop":2082000},{"name":"Huaiyin","country":"China","lat":33.5852,"lon":119.066,"pop":1264000},{"name":"Wenzhou","country":"China","lat":28.0219,"lon":120.6481,"pop":2350000},{"name":"Ningbo","country":"China","lat":29.8819,"lon":121.5481,"pop":1923000},{"name":"Fukuoka","country":"Japan","lat":33.597,"lon":130.4081,"pop":2792000},{"name":"Miyazaki","country":"Japan","lat":31.9182,"lon":131.4184,"pop":324384},{"name":"Naha","country":"Japan","lat":26.2072,"lon":127.673,"pop":905238},{"name":"Kōchi","country":"Japan","lat":33.5624,"lon":133.5375,"pop":335570},{"name":"Gorontalo","country":"Indonesia","lat":0.55,"lon":123.07,"pop":365497},{"name":"Tongliao","country":"China","lat":43.6219,"lon":122.268,"pop":884000},{"name":"Hohhot","country":"China","lat":40.8219,"lon":111.6581,"pop":1726000},{"name":"Chifeng","country":"China","lat":42.272,"lon":118.948,"pop":1277000},{"name":"Jiamusi","country":"China","lat":46.832,"lon":130.3481,"pop":1020000},{"name":"Daqing","country":"China","lat":46.5819,"lon":124.9981,"pop":1693000},{"name":"Jixi","country":"China","lat":45.3019,"lon":130.9681,"pop":965000},{"name":"Nagoya","country":"Japan","lat":35.1569,"lon":136.913,"pop":3230000},{"name":"Nagano","country":"Japan","lat":36.65,"lon":138.17,"pop":594311},{"name":"Hakodate","country":"Japan","lat":41.795,"lon":140.74,"pop":302984},{"name":"Kyoto","country":"Japan","lat":35.0319,"lon":135.7481,"pop":1805000},{"name":"Sendai","country":"Japan","lat":38.2684,"lon":140.8697,"pop":2250000},{"name":"Kananga","country":"Congo (Kinshasa)","lat":-5.8881,"lon":22.3981,"pop":765000},{"name":"Mbuji-Mayi","country":"Congo (Kinshasa)","lat":-6.1481,"lon":23.5981,"pop":1295000},{"name":"Blantyre","country":"Malawi","lat":-15.79,"lon":34.9899,"pop":584877},{"name":"Quetzaltenango","country":"Guatemala","lat":14.83,"lon":-91.52,"pop":575263},{"name":"Faridabad","country":"India","lat":28.4353,"lon":77.3147,"pop":1394000},{"name":"Srinagar","country":"India","lat":34.0695,"lon":74.8283,"pop":1140000},{"name":"Vijayawada","country":"India","lat":16.5219,"lon":80.6281,"pop":1137000},{"name":"Thiruvananthapuram","country":"India","lat":8.5155,"lon":76.9252,"pop":954000},{"name":"Kochi","country":"India","lat":10.017,"lon":76.222,"pop":1519000},{"name":"Cuttack","country":"India","lat":20.47,"lon":85.8899,"pop":580000},{"name":"Hubballi","country":"India","lat":15.3619,"lon":75.1231,"pop":890000},{"name":"Mangaluru","country":"India","lat":12.9,"lon":74.85,"pop":776632},{"name":"Mysuru","country":"India","lat":12.3119,"lon":76.6581,"pop":887000},{"name":"Kalaburagi","country":"India","lat":17.35,"lon":76.82,"pop":483615},{"name":"Kolhapur","country":"India","lat":16.7,"lon":74.22,"pop":750000},{"name":"Nanded","country":"India","lat":19.1973,"lon":77.3083,"pop":623708},{"name":"Akola","country":"India","lat":20.71,"lon":77.01,"pop":503502},{"name":"Guwahati","country":"India","lat":26.162,"lon":91.768,"pop":983000},{"name":"Bordeaux","country":"France","lat":44.852,"lon":-0.597,"pop":803000},{"name":"Marseille","country":"France","lat":43.2919,"lon":5.3731,"pop":1400000},{"name":"Skopje","country":"North Macedonia","lat":42,"lon":21.4335,"pop":494087},{"name":"Misrata","country":"Libya","lat":32.38,"lon":15.1,"pop":386120},{"name":"Kirkuk","country":"Iraq","lat":35.4722,"lon":44.3923,"pop":601433},{"name":"Mosul","country":"Iraq","lat":36.3469,"lon":43.1431,"pop":1316000},{"name":"Najaf","country":"Iraq","lat":32.0003,"lon":44.3354,"pop":665552},{"name":"Pavlodar","country":"Kazakhstan","lat":52.3,"lon":76.95,"pop":329002},{"name":"Semey","country":"Kazakhstan","lat":50.435,"lon":80.275,"pop":311353},{"name":"Oskemen","country":"Kazakhstan","lat":49.99,"lon":82.6149,"pop":319067},{"name":"Yazd","country":"Iran","lat":31.9201,"lon":54.37,"pop":477905},{"name":"Ahvaz","country":"Iran","lat":31.2819,"lon":48.7181,"pop":996000},{"name":"Basra","country":"Iraq","lat":30.5155,"lon":47.8116,"pop":870000},{"name":"Bandar-e-Abbas","country":"Iran","lat":27.2041,"lon":56.2721,"pop":461499},{"name":"Hamadan","country":"Iran","lat":34.796,"lon":48.515,"pop":528256},{"name":"Tabriz","country":"Iran","lat":38.0882,"lon":46.2993,"pop":1413000},{"name":"Ludhiana","country":"India","lat":30.9297,"lon":75.8703,"pop":1649000},{"name":"Kota","country":"India","lat":25.1819,"lon":75.8331,"pop":827000},{"name":"Jodhpur","country":"India","lat":26.2937,"lon":73.0148,"pop":995000},{"name":"Shymkent","country":"Kazakhstan","lat":42.32,"lon":69.595,"pop":465392},{"name":"Taraz","country":"Kazakhstan","lat":42.9,"lon":71.365,"pop":358153},{"name":"Lucknow","country":"India","lat":26.857,"lon":80.9131,"pop":2695000},{"name":"Saharanpur","country":"India","lat":29.97,"lon":77.55,"pop":484873},{"name":"Ranchi","country":"India","lat":23.372,"lon":85.3281,"pop":1044000},{"name":"Bhagalpur","country":"India","lat":25.23,"lon":86.98,"pop":361548},{"name":"Raipur","country":"India","lat":21.2369,"lon":81.6331,"pop":875000},{"name":"Jabalpur","country":"India","lat":23.177,"lon":79.9531,"pop":1285000},{"name":"Indore","country":"India","lat":22.717,"lon":75.8631,"pop":2026000},{"name":"Salem","country":"India","lat":11.6719,"lon":78.1781,"pop":873000},{"name":"Tiruchirappalli","country":"India","lat":10.8005,"lon":78.6875,"pop":951000},{"name":"Pointe-Noire","country":"Congo (Brazzaville)","lat":-4.77,"lon":11.88,"pop":659084},{"name":"Bouaké","country":"Ivory Coast","lat":7.69,"lon":-5.03,"pop":567481},{"name":"São Luís","country":"Brazil","lat":-2.514,"lon":-44.2679,"pop":1038000},{"name":"Porto Velho","country":"Brazil","lat":-8.75,"lon":-63.9,"pop":306180},{"name":"Belo Horizonte","country":"Brazil","lat":-19.9131,"lon":-43.9169,"pop":5575000},{"name":"Montes Claros","country":"Brazil","lat":-16.72,"lon":-43.86,"pop":332379},{"name":"Uberlândia","country":"Brazil","lat":-18.9,"lon":-48.28,"pop":563536},{"name":"Cuiabá","country":"Brazil","lat":-15.5677,"lon":-56.0869,"pop":806000},{"name":"Pelotas","country":"Brazil","lat":-31.75,"lon":-52.33,"pop":320674},{"name":"Caxias do Sul","country":"Brazil","lat":-29.18,"lon":-51.17,"pop":381270},{"name":"Teresina","country":"Brazil","lat":-5.0931,"lon":-42.782,"pop":907000},{"name":"Maceió","country":"Brazil","lat":-9.6181,"lon":-35.7319,"pop":1186000},{"name":"Vitória da Conquista","country":"Brazil","lat":-14.85,"lon":-40.84,"pop":308204},{"name":"Vila Velha","country":"Brazil","lat":-20.338,"lon":-40.2902,"pop":1209091},{"name":"Natal","country":"Brazil","lat":-5.7781,"lon":-35.242,"pop":1088000},{"name":"San Juan","country":"Argentina","lat":-31.55,"lon":-68.52,"pop":447048},{"name":"Salta","country":"Argentina","lat":-24.7834,"lon":-65.4166,"pop":512686},{"name":"Tucumán","country":"Argentina","lat":-26.8141,"lon":-65.2186,"pop":830000},{"name":"Santa Fe","country":"Argentina","lat":-31.6239,"lon":-60.69,"pop":489505},{"name":"Rosario","country":"Argentina","lat":-32.9492,"lon":-60.6683,"pop":1203000},{"name":"Campinas","country":"Brazil","lat":-22.9079,"lon":-47.0559,"pop":2791000},{"name":"Sorocaba","country":"Brazil","lat":-23.49,"lon":-47.47,"pop":563281},{"name":"Ribeirão Preto","country":"Brazil","lat":-21.17,"lon":-47.83,"pop":551267},{"name":"Bamenda","country":"Cameroon","lat":5.96,"lon":10.15,"pop":445299},{"name":"Garoua","country":"Cameroon","lat":9.3,"lon":13.39,"pop":436899},{"name":"Herat","country":"Afghanistan","lat":34.33,"lon":62.17,"pop":481009},{"name":"Mazar-i-Sharif","country":"Afghanistan","lat":36.7,"lon":67.1,"pop":458151},{"name":"Annaba","country":"Algeria","lat":36.92,"lon":7.76,"pop":503524},{"name":"Constantine","country":"Algeria","lat":36.36,"lon":6.5999,"pop":605179},{"name":"Brest","country":"Belarus","lat":52.1,"lon":23.7,"pop":300715},{"name":"Khulna","country":"Bangladesh","lat":22.8419,"lon":89.5581,"pop":1553000},{"name":"Gold Coast","country":"Australia","lat":-28.0815,"lon":153.4482,"pop":527660},{"name":"Bobo Dioulasso","country":"Burkina Faso","lat":11.18,"lon":-4.29,"pop":360106},{"name":"Rajshahi","country":"Bangladesh","lat":24.3769,"lon":88.6031,"pop":810000},{"name":"Mandalay","country":"Myanmar","lat":21.9719,"lon":96.0831,"pop":1300000},{"name":"Bujumbura","country":"Burundi","lat":-3.3761,"lon":29.36,"pop":331700},{"name":"Las Palmas","country":"Spain","lat":28.1,"lon":-15.43,"pop":378495},{"name":"Port Louis","country":"Mauritius","lat":-20.1666,"lon":57.5,"pop":595491},{"name":"Gaza City","country":"Palestine","lat":31.53,"lon":34.445,"pop":505700},{"name":"Manama","country":"Bahrain","lat":26.2361,"lon":50.5831,"pop":563920},{"name":"Taichung","country":"Taiwan","lat":24.1521,"lon":120.6817,"pop":2629323},{"name":"Manukau","country":"New Zealand","lat":-37,"lon":174.885,"pop":375600},{"name":"Amaravati","country":"India","lat":16.5337,"lon":80.5243,"pop":5800000},{"name":"Kozhikode","country":"India","lat":11.2524,"lon":75.768,"pop":953000},{"name":"Bhubaneswar","country":"India","lat":20.2724,"lon":85.8254,"pop":844000},{"name":"Jamshedpur","country":"India","lat":22.7895,"lon":86.1956,"pop":1300000},{"name":"Montevideo","country":"Uruguay","lat":-34.9054,"lon":-56.1868,"pop":1513000},{"name":"Boise","country":"United States of America","lat":43.6086,"lon":-116.2275,"pop":338071},{"name":"San Jose","country":"United States of America","lat":37.3309,"lon":-121.8882,"pop":1668000},{"name":"Sacramento","country":"United States of America","lat":38.577,"lon":-121.472,"pop":1604000},{"name":"Las Vegas","country":"United States of America","lat":36.1648,"lon":-115.1514,"pop":1823000},{"name":"Portland","country":"United States of America","lat":45.522,"lon":-122.6819,"pop":1875000},{"name":"Salt Lake City","country":"United States of America","lat":40.777,"lon":-111.932,"pop":966000},{"name":"Des Moines","country":"United States of America","lat":41.58,"lon":-93.62,"pop":380655},{"name":"Omaha","country":"United States of America","lat":41.24,"lon":-96.01,"pop":877110},{"name":"Oklahoma City","country":"United States of America","lat":35.472,"lon":-97.5206,"pop":788000},{"name":"San Antonio","country":"United States of America","lat":29.4198,"lon":-98.4927,"pop":1473000},{"name":"San Cristóbal","country":"Venezuela","lat":7.77,"lon":-72.25,"pop":438798},{"name":"Valencia","country":"Venezuela","lat":10.2319,"lon":-67.982,"pop":1770000},{"name":"Raleigh","country":"United States of America","lat":35.7727,"lon":-78.647,"pop":1163515},{"name":"Cleveland","country":"United States of America","lat":41.4719,"lon":-81.6969,"pop":1890000},{"name":"Cincinnati","country":"United States of America","lat":39.1638,"lon":-84.4589,"pop":1636000},{"name":"Nashville","country":"United States of America","lat":36.1719,"lon":-86.7819,"pop":877000},{"name":"Memphis","country":"United States of America","lat":35.1447,"lon":-90.0288,"pop":1081000},{"name":"Norfolk","country":"United States of America","lat":36.85,"lon":-76.28,"pop":1047869},{"name":"Milwaukee","country":"United States of America","lat":43.0296,"lon":-87.9167,"pop":1388000},{"name":"Buffalo","country":"United States of America","lat":42.8819,"lon":-78.8819,"pop":1016000},{"name":"Pittsburgh","country":"United States of America","lat":40.4319,"lon":-80.0019,"pop":1838000},{"name":"Ciudad Guayana","country":"Venezuela","lat":8.37,"lon":-62.62,"pop":746535},{"name":"Lomé","country":"Togo","lat":6.1339,"lon":1.2208,"pop":1452000},{"name":"Tunis","country":"Tunisia","lat":36.8028,"lon":10.1797,"pop":2412500},{"name":"Sevastopol","country":"Russia","lat":44.6039,"lon":33.5244,"pop":379200},{"name":"Abu Dhabi","country":"United Arab Emirates","lat":24.4667,"lon":54.3666,"pop":603492},{"name":"Ashgabat","country":"Turkmenistan","lat":37.95,"lon":58.3833,"pop":727700},{"name":"Samarkand","country":"Uzbekistan","lat":39.67,"lon":66.945,"pop":708000},{"name":"Lusaka","country":"Zambia","lat":-15.4147,"lon":28.2814,"pop":1328000},{"name":"Harare","country":"Zimbabwe","lat":-17.8158,"lon":31.0428,"pop":1572000},{"name":"Bulawayo","country":"Zimbabwe","lat":-20.17,"lon":28.58,"pop":699385},{"name":"Tegucigalpa","country":"Honduras","lat":14.104,"lon":-87.2195,"pop":946000},{"name":"Port-au-Prince","country":"Haiti","lat":18.543,"lon":-72.338,"pop":1998000},{"name":"Glasgow","country":"United Kingdom","lat":55.8623,"lon":-4.2391,"pop":1160000},{"name":"Kampala","country":"Uganda","lat":0.3186,"lon":32.5814,"pop":1420000},{"name":"Aden","country":"Yemen","lat":12.7797,"lon":45.0095,"pop":1000000},{"name":"Seville","country":"Spain","lat":37.405,"lon":-5.98,"pop":1212045},{"name":"Niamey","country":"Niger","lat":13.5187,"lon":2.1147,"pop":915000},{"name":"Port Sudan","country":"Sudan","lat":19.6158,"lon":37.2164,"pop":489725},{"name":"Dushanbe","country":"Tajikistan","lat":38.56,"lon":68.7739,"pop":1086244},{"name":"Cusco","country":"Peru","lat":-13.525,"lon":-71.9722,"pop":361182},{"name":"Trujillo","country":"Peru","lat":-8.12,"lon":-79.02,"pop":765171},{"name":"Asunción","country":"Paraguay","lat":-25.2907,"lon":-57.6258,"pop":1870000},{"name":"Managua","country":"Nicaragua","lat":12.155,"lon":-86.2704,"pop":920000},{"name":"Freetown","country":"Sierra Leone","lat":8.472,"lon":-13.2362,"pop":827000},{"name":"Nyala","country":"Sudan","lat":12.06,"lon":24.89,"pop":392373},{"name":"Kassala","country":"Sudan","lat":15.46,"lon":36.39,"pop":401477},{"name":"Islamabad","country":"Pakistan","lat":33.6894,"lon":73.0806,"pop":780000},{"name":"Multan","country":"Pakistan","lat":30.2019,"lon":71.4531,"pop":1522000},{"name":"Hyderabad","country":"Pakistan","lat":25.3819,"lon":68.373,"pop":1459000},{"name":"Peshawar","country":"Pakistan","lat":34.007,"lon":71.5331,"pop":1303000},{"name":"Kathmandu","country":"Nepal","lat":27.7186,"lon":85.3147,"pop":895000},{"name":"Bloemfontein","country":"South Africa","lat":-29.12,"lon":26.2299,"pop":463064},{"name":"Pretoria","country":"South Africa","lat":-25.705,"lon":28.2275,"pop":1338000},{"name":"Panama City","country":"Panama","lat":8.97,"lon":-79.535,"pop":1281000},{"name":"Fez","country":"Morocco","lat":34.0565,"lon":-5.0023,"pop":1002000},{"name":"Rabat","country":"Morocco","lat":34.0253,"lon":-6.8364,"pop":1705000},{"name":"Marrakesh","country":"Morocco","lat":31.6319,"lon":-8.0019,"pop":872000},{"name":"Chișinău","country":"Moldova","lat":47.005,"lon":28.8577,"pop":688134},{"name":"Beira","country":"Mozambique","lat":-19.82,"lon":34.87,"pop":530604},{"name":"Port Elizabeth","country":"South Africa","lat":-33.9681,"lon":25.5981,"pop":1021000},{"name":"Maputo","country":"Mozambique","lat":-25.9533,"lon":32.5872,"pop":1446000},{"name":"Tomsk","country":"Russia","lat":56.495,"lon":84.975,"pop":535479},{"name":"Murmansk","country":"Russia","lat":68.97,"lon":33.1,"pop":319263},{"name":"Archangel","country":"Russia","lat":64.575,"lon":40.545,"pop":356051},{"name":"Nizhny Novgorod","country":"Russia","lat":56.335,"lon":43.9981,"pop":1278000},{"name":"Volgograd","country":"Russia","lat":48.712,"lon":44.498,"pop":984000},{"name":"Ufa","country":"Russia","lat":54.7919,"lon":56.0381,"pop":1018000},{"name":"Yekaterinburg","country":"Russia","lat":56.852,"lon":60.598,"pop":1313000},{"name":"Samara","country":"Russia","lat":53.197,"lon":50.1493,"pop":1137000},{"name":"Kazan","country":"Russia","lat":55.7519,"lon":49.1244,"pop":1115000},{"name":"Surgut","country":"Russia","lat":61.2599,"lon":73.425,"pop":400000},{"name":"Barnaul","country":"Russia","lat":53.355,"lon":83.745,"pop":599579},{"name":"Novosibirsk","country":"Russia","lat":55.0319,"lon":82.9581,"pop":1389000},{"name":"Mogadishu","country":"Somalia","lat":2.0686,"lon":45.3647,"pop":1100000},{"name":"Muscat","country":"Oman","lat":23.5852,"lon":58.3783,"pop":734697},{"name":"Cebu","country":"Philippines","lat":10.3219,"lon":123.8981,"pop":815000},{"name":"Iloilo","country":"Philippines","lat":10.705,"lon":122.545,"pop":387681},{"name":"Davao","country":"Philippines","lat":7.112,"lon":125.6281,"pop":1402000},{"name":"Irkutsk","country":"Russia","lat":52.2846,"lon":104.2839,"pop":586695},{"name":"Krasnoyarsk","country":"Russia","lat":56.0159,"lon":92.8641,"pop":925000},{"name":"Chita","country":"Russia","lat":52.055,"lon":113.465,"pop":308500},{"name":"Vladivostok","country":"Russia","lat":43.13,"lon":131.91,"pop":587022},{"name":"Tijuana","country":"Mexico","lat":32.502,"lon":-117.0819,"pop":1553000},{"name":"Chihuahua","country":"Mexico","lat":28.6469,"lon":-106.0869,"pop":793000},{"name":"Mazatlán","country":"Mexico","lat":23.2211,"lon":-106.42,"pop":368204},{"name":"Tampico","country":"Mexico","lat":22.3,"lon":-97.87,"pop":859419},{"name":"Acapulco","country":"Mexico","lat":16.85,"lon":-99.916,"pop":715584},{"name":"Veracruz","country":"Mexico","lat":19.1773,"lon":-96.16,"pop":578963},{"name":"Tuxtla Gutiérrez","country":"Mexico","lat":16.75,"lon":-93.15,"pop":481128},{"name":"Cancún","country":"Mexico","lat":21.17,"lon":-86.83,"pop":542043},{"name":"Mérida","country":"Mexico","lat":20.9686,"lon":-89.6186,"pop":965000},{"name":"Enugu","country":"Nigeria","lat":6.45,"lon":7.5,"pop":688862},{"name":"Sokoto","country":"Nigeria","lat":13.06,"lon":5.24,"pop":732178},{"name":"Perm","country":"Russia","lat":58.0019,"lon":56.248,"pop":997000},{"name":"Ulaanbaatar","country":"Mongolia","lat":47.9186,"lon":106.9147,"pop":885000},{"name":"Zanzibar","country":"Tanzania","lat":-6.16,"lon":39.2,"pop":403658},{"name":"Valencia","country":"Spain","lat":39.487,"lon":-0.402,"pop":808000},{"name":"Abuja","country":"Nigeria","lat":9.0546,"lon":7.4895,"pop":1576000},{"name":"Padang","country":"Indonesia","lat":-0.9581,"lon":100.3581,"pop":855000},{"name":"Bissau","country":"Guinea Bissau","lat":11.865,"lon":-15.5984,"pop":403339},{"name":"Palermo","country":"Italy","lat":38.127,"lon":13.3481,"pop":863000},{"name":"Amman","country":"Jordan","lat":31.952,"lon":35.9314,"pop":1060000},{"name":"Vilnius","country":"Lithuania","lat":54.6834,"lon":25.3166,"pop":542366},{"name":"Riga","country":"Latvia","lat":56.95,"lon":24.1,"pop":742572},{"name":"Bishkek","country":"Kyrgyzstan","lat":42.875,"lon":74.5833,"pop":837000},{"name":"Xining","country":"China","lat":36.6219,"lon":101.7681,"pop":1048000},{"name":"Guilin","country":"China","lat":25.2819,"lon":110.2781,"pop":987000},{"name":"Huainan","country":"China","lat":32.6319,"lon":116.978,"pop":1451000},{"name":"Shantou","country":"China","lat":23.372,"lon":116.6681,"pop":1601000},{"name":"Mombasa","country":"Kenya","lat":-4.0381,"lon":39.688,"pop":882000},{"name":"Maseru","country":"Lesotho","lat":-29.3167,"lon":27.4833,"pop":361324},{"name":"Antananarivo","country":"Madagascar","lat":-18.9147,"lon":47.5147,"pop":1697000},{"name":"Semarang","country":"Indonesia","lat":-6.9647,"lon":110.4181,"pop":1396000},{"name":"Palembang","country":"Indonesia","lat":-2.9781,"lon":104.7481,"pop":1749000},{"name":"Bandjarmasin","country":"Indonesia","lat":-3.33,"lon":114.5801,"pop":603576},{"name":"Makassar","country":"Indonesia","lat":-5.138,"lon":119.4301,"pop":1262000},{"name":"Lyon","country":"France","lat":45.772,"lon":4.8281,"pop":1423000},{"name":"Quito","country":"Ecuador","lat":-0.213,"lon":-78.502,"pop":1701000},{"name":"San José","country":"Costa Rica","lat":9.9304,"lon":-84.0788,"pop":1284000},{"name":"San Salvador","country":"El Salvador","lat":13.7033,"lon":-89.2156,"pop":1433000},{"name":"Kingston","country":"Jamaica","lat":17.9771,"lon":-76.7674,"pop":937700},{"name":"Cartagena","country":"Colombia","lat":10.4017,"lon":-75.5163,"pop":887000},{"name":"N'Djamena","country":"Chad","lat":12.115,"lon":15.0472,"pop":989000},{"name":"Luxor","country":"Egypt","lat":25.7,"lon":32.65,"pop":609248},{"name":"Asmara","country":"Eritrea","lat":15.3333,"lon":38.9333,"pop":620802},{"name":"Zagreb","country":"Croatia","lat":45.8,"lon":16,"pop":722526},{"name":"Tallinn","country":"Estonia","lat":59.4339,"lon":24.728,"pop":394024},{"name":"Hami","country":"China","lat":42.827,"lon":93.515,"pop":580000},{"name":"Hotan","country":"China","lat":37.0997,"lon":79.9269,"pop":408894},{"name":"Kashgar","country":"China","lat":39.4763,"lon":75.9699,"pop":506640},